{
"type": "FeatureCollection",
"crs": { "type": "name", "properties": { "name": "urn:ogc:def:crs:OGC:1.3:CRS84" } },
                                                                                
"features": [
{ "type": "Feature", "properties": { "nom_com": "SAINT-MELANY", "insee_com": "07275", "code_cant": "16", "code_arr": "1", "code_dept": "07", "nom_dept": "ARDECHE" }, "geometry": { "type": "Point", "coordinates": [ 4.128882527513145, 44.538950820255494 ] } },
{ "type": "Feature", "properties": { "nom_com": "JOYEUSE", "insee_com": "07110", "code_cant": "16", "code_arr": "1", "code_dept": "07", "nom_dept": "ARDECHE" }, "geometry": { "type": "Point", "coordinates": [ 4.247492509515945, 44.470942952111898 ] } },
{ "type": "Feature", "properties": { "nom_com": "ARDOIX", "insee_com": "07013", "code_cant": "08", "code_arr": "3", "code_dept": "07", "nom_dept": "ARDECHE" }, "geometry": { "type": "Point", "coordinates": [ 4.743487979952853, 45.191403149611887 ] } },
{ "type": "Feature", "properties": { "nom_com": "VION", "insee_com": "07345", "code_cant": "14", "code_arr": "3", "code_dept": "07", "nom_dept": "ARDECHE" }, "geometry": { "type": "Point", "coordinates": [ 4.798598975340783, 45.111661938072089 ] } },
{ "type": "Feature", "properties": { "nom_com": "ARRAS-SUR-RHONE", "insee_com": "07015", "code_cant": "11", "code_arr": "3", "code_dept": "07", "nom_dept": "ARDECHE" }, "geometry": { "type": "Point", "coordinates": [ 4.803770774143223, 45.143299222586919 ] } },
{ "type": "Feature", "properties": { "nom_com": "JUVINAS", "insee_com": "07111", "code_cant": "03", "code_arr": "1", "code_dept": "07", "nom_dept": "ARDECHE" }, "geometry": { "type": "Point", "coordinates": [ 4.307402951922872, 44.704816933685798 ] } },
{ "type": "Feature", "properties": { "nom_com": "LE CHAMBON", "insee_com": "07049", "code_cant": "06", "code_arr": "3", "code_dept": "07", "nom_dept": "ARDECHE" }, "geometry": { "type": "Point", "coordinates": [ 4.298757213248609, 44.829255278814358 ] } },
{ "type": "Feature", "properties": { "nom_com": "THORRENC", "insee_com": "07321", "code_cant": "02", "code_arr": "3", "code_dept": "07", "nom_dept": "ARDECHE" }, "geometry": { "type": "Point", "coordinates": [ 4.75928950601029, 45.233693474939201 ] } },
{ "type": "Feature", "properties": { "nom_com": "SAINT-MAURICE-D'ARDECHE", "insee_com": "07272", "code_cant": "15", "code_arr": "1", "code_dept": "07", "nom_dept": "ARDECHE" }, "geometry": { "type": "Point", "coordinates": [ 4.405281843109475, 44.519206651910444 ] } },
{ "type": "Feature", "properties": { "nom_com": "UZER", "insee_com": "07327", "code_cant": "15", "code_arr": "1", "code_dept": "07", "nom_dept": "ARDECHE" }, "geometry": { "type": "Point", "coordinates": [ 4.326924617650675, 44.518724876901459 ] } },
{ "type": "Feature", "properties": { "nom_com": "SAINT-DESIRAT", "insee_com": "07228", "code_cant": "11", "code_arr": "3", "code_dept": "07", "nom_dept": "ARDECHE" }, "geometry": { "type": "Point", "coordinates": [ 4.7805592340535, 45.258510822169114 ] } },
{ "type": "Feature", "properties": { "nom_com": "SERRIERES", "insee_com": "07313", "code_cant": "11", "code_arr": "3", "code_dept": "07", "nom_dept": "ARDECHE" }, "geometry": { "type": "Point", "coordinates": [ 4.761835452644966, 45.314218996742191 ] } },
{ "type": "Feature", "properties": { "nom_com": "LA ROCHETTE", "insee_com": "07195", "code_cant": "06", "code_arr": "3", "code_dept": "07", "nom_dept": "ARDECHE" }, "geometry": { "type": "Point", "coordinates": [ 4.232541534289336, 44.922144634130895 ] } },
{ "type": "Feature", "properties": { "nom_com": "USCLADES-ET-RIEUTORD", "insee_com": "07326", "code_cant": "13", "code_arr": "1", "code_dept": "07", "nom_dept": "ARDECHE" }, "geometry": { "type": "Point", "coordinates": [ 4.169445323134712, 44.770537283271601 ] } },
{ "type": "Feature", "properties": { "nom_com": "PEREYRES", "insee_com": "07173", "code_cant": "13", "code_arr": "1", "code_dept": "07", "nom_dept": "ARDECHE" }, "geometry": { "type": "Point", "coordinates": [ 4.260664580246163, 44.780088446211458 ] } },
{ "type": "Feature", "properties": { "nom_com": "CHATEAUBOURG", "insee_com": "07059", "code_cant": "07", "code_arr": "3", "code_dept": "07", "nom_dept": "ARDECHE" }, "geometry": { "type": "Point", "coordinates": [ 4.838056750574324, 44.986612812896666 ] } },
{ "type": "Feature", "properties": { "nom_com": "MONESTIER", "insee_com": "07160", "code_cant": "02", "code_arr": "3", "code_dept": "07", "nom_dept": "ARDECHE" }, "geometry": { "type": "Point", "coordinates": [ 4.505566512621607, 45.199789752174709 ] } },
{ "type": "Feature", "properties": { "nom_com": "LE PLAGNAL", "insee_com": "07175", "code_cant": "13", "code_arr": "1", "code_dept": "07", "nom_dept": "ARDECHE" }, "geometry": { "type": "Point", "coordinates": [ 3.95044658591798, 44.693787351145197 ] } },
{ "type": "Feature", "properties": { "nom_com": "MEYRAS", "insee_com": "07156", "code_cant": "13", "code_arr": "1", "code_dept": "07", "nom_dept": "ARDECHE" }, "geometry": { "type": "Point", "coordinates": [ 4.260408520511611, 44.676584854357316 ] } },
{ "type": "Feature", "properties": { "nom_com": "ISSARLES", "insee_com": "07106", "code_cant": "13", "code_arr": "1", "code_dept": "07", "nom_dept": "ARDECHE" }, "geometry": { "type": "Point", "coordinates": [ 4.05370663848938, 44.852399741208863 ] } },
{ "type": "Feature", "properties": { "nom_com": "COLOMBIER-LE-JEUNE", "insee_com": "07068", "code_cant": "14", "code_arr": "3", "code_dept": "07", "nom_dept": "ARDECHE" }, "geometry": { "type": "Point", "coordinates": [ 4.715013016506783, 45.010986444414407 ] } },
{ "type": "Feature", "properties": { "nom_com": "LE ROUX", "insee_com": "07200", "code_cant": "13", "code_arr": "1", "code_dept": "07", "nom_dept": "ARDECHE" }, "geometry": { "type": "Point", "coordinates": [ 4.142803458203359, 44.721229795614803 ] } },
{ "type": "Feature", "properties": { "nom_com": "BOURG-SAINT-ANDEOL", "insee_com": "07042", "code_cant": "05", "code_arr": "2", "code_dept": "07", "nom_dept": "ARDECHE" }, "geometry": { "type": "Point", "coordinates": [ 4.613824762494199, 44.382851405237723 ] } },
{ "type": "Feature", "properties": { "nom_com": "LE LAC-D'ISSARLES", "insee_com": "07119", "code_cant": "13", "code_arr": "1", "code_dept": "07", "nom_dept": "ARDECHE" }, "geometry": { "type": "Point", "coordinates": [ 4.0749942450667, 44.82346221170102 ] } },
{ "type": "Feature", "properties": { "nom_com": "PRADONS", "insee_com": "07183", "code_cant": "15", "code_arr": "1", "code_dept": "07", "nom_dept": "ARDECHE" }, "geometry": { "type": "Point", "coordinates": [ 4.376989310626947, 44.473379465129625 ] } },
{ "type": "Feature", "properties": { "nom_com": "SAINT-CHRISTOL", "insee_com": "07220", "code_cant": "06", "code_arr": "3", "code_dept": "07", "nom_dept": "ARDECHE" }, "geometry": { "type": "Point", "coordinates": [ 4.439534026779278, 44.869610934337544 ] } },
{ "type": "Feature", "properties": { "nom_com": "SAINT-FELICIEN", "insee_com": "07236", "code_cant": "08", "code_arr": "3", "code_dept": "07", "nom_dept": "ARDECHE" }, "geometry": { "type": "Point", "coordinates": [ 4.610957078804406, 45.077449936070678 ] } },
{ "type": "Feature", "properties": { "nom_com": "FLAVIAC", "insee_com": "07090", "code_cant": "10", "code_arr": "2", "code_dept": "07", "nom_dept": "ARDECHE" }, "geometry": { "type": "Point", "coordinates": [ 4.659846239772985, 44.750939031303368 ] } },
{ "type": "Feature", "properties": { "nom_com": "CELLIER-DU-LUC", "insee_com": "07047", "code_cant": "13", "code_arr": "1", "code_dept": "07", "nom_dept": "ARDECHE" }, "geometry": { "type": "Point", "coordinates": [ 3.901938091285466, 44.673419354436732 ] } },
{ "type": "Feature", "properties": { "nom_com": "CHARNAS", "insee_com": "07056", "code_cant": "11", "code_arr": "3", "code_dept": "07", "nom_dept": "ARDECHE" }, "geometry": { "type": "Point", "coordinates": [ 4.732236636999681, 45.342793504455599 ] } },
{ "type": "Feature", "properties": { "nom_com": "CRUAS", "insee_com": "07076", "code_cant": "09", "code_arr": "2", "code_dept": "07", "nom_dept": "ARDECHE" }, "geometry": { "type": "Point", "coordinates": [ 4.756231250722172, 44.656496796928522 ] } },
{ "type": "Feature", "properties": { "nom_com": "SAINT-MAURICE-EN-CHALENCON", "insee_com": "07274", "code_cant": "06", "code_arr": "3", "code_dept": "07", "nom_dept": "ARDECHE" }, "geometry": { "type": "Point", "coordinates": [ 4.582637587526758, 44.85494083841084 ] } },
{ "type": "Feature", "properties": { "nom_com": "ANDANCE", "insee_com": "07009", "code_cant": "11", "code_arr": "3", "code_dept": "07", "nom_dept": "ARDECHE" }, "geometry": { "type": "Point", "coordinates": [ 4.796871046275108, 45.227515092127199 ] } },
{ "type": "Feature", "properties": { "nom_com": "MERCUER", "insee_com": "07155", "code_cant": "04", "code_arr": "1", "code_dept": "07", "nom_dept": "ARDECHE" }, "geometry": { "type": "Point", "coordinates": [ 4.350285108243947, 44.626146815866662 ] } },
{ "type": "Feature", "properties": { "nom_com": "SAINT-JEAN-DE-MUZOLS", "insee_com": "07245", "code_cant": "14", "code_arr": "3", "code_dept": "07", "nom_dept": "ARDECHE" }, "geometry": { "type": "Point", "coordinates": [ 4.800180785289267, 45.079175317886133 ] } },
{ "type": "Feature", "properties": { "nom_com": "FONS", "insee_com": "07091", "code_cant": "04", "code_arr": "1", "code_dept": "07", "nom_dept": "ARDECHE" }, "geometry": { "type": "Point", "coordinates": [ 4.347386992182683, 44.581472784607165 ] } },
{ "type": "Feature", "properties": { "nom_com": "SAINT-GERMAIN", "insee_com": "07241", "code_cant": "12", "code_arr": "1", "code_dept": "07", "nom_dept": "ARDECHE" }, "geometry": { "type": "Point", "coordinates": [ 4.447690970365628, 44.554085753211382 ] } },
{ "type": "Feature", "properties": { "nom_com": "SAINT-GENEST-LACHAMP", "insee_com": "07239", "code_cant": "06", "code_arr": "3", "code_dept": "07", "nom_dept": "ARDECHE" }, "geometry": { "type": "Point", "coordinates": [ 4.424628752058027, 44.844105356781341 ] } },
{ "type": "Feature", "properties": { "nom_com": "SAINT-LAURENT-DU-PAPE", "insee_com": "07261", "code_cant": "17", "code_arr": "2", "code_dept": "07", "nom_dept": "ARDECHE" }, "geometry": { "type": "Point", "coordinates": [ 4.745966859943074, 44.823168250317288 ] } },
{ "type": "Feature", "properties": { "nom_com": "SAINT-BARTHELEMY-LE-MEIL", "insee_com": "07215", "code_cant": "06", "code_arr": "3", "code_dept": "07", "nom_dept": "ARDECHE" }, "geometry": { "type": "Point", "coordinates": [ 4.478424184554656, 44.885107959263621 ] } },
{ "type": "Feature", "properties": { "nom_com": "VAUDEVANT", "insee_com": "07335", "code_cant": "08", "code_arr": "3", "code_dept": "07", "nom_dept": "ARDECHE" }, "geometry": { "type": "Point", "coordinates": [ 4.607613025539459, 45.108687701127643 ] } },
{ "type": "Feature", "properties": { "nom_com": "POURCHERES", "insee_com": "07179", "code_cant": "10", "code_arr": "2", "code_dept": "07", "nom_dept": "ARDECHE" }, "geometry": { "type": "Point", "coordinates": [ 4.50396154565992, 44.739377855892748 ] } },
{ "type": "Feature", "properties": { "nom_com": "SAINT-BAUZILE", "insee_com": "07219", "code_cant": "09", "code_arr": "2", "code_dept": "07", "nom_dept": "ARDECHE" }, "geometry": { "type": "Point", "coordinates": [ 4.668741387520792, 44.673053010687624 ] } },
{ "type": "Feature", "properties": { "nom_com": "AIZAC", "insee_com": "07003", "code_cant": "03", "code_arr": "1", "code_dept": "07", "nom_dept": "ARDECHE" }, "geometry": { "type": "Point", "coordinates": [ 4.330309633227701, 44.719920202599994 ] } },
{ "type": "Feature", "properties": { "nom_com": "BERZEME", "insee_com": "07032", "code_cant": "12", "code_arr": "1", "code_dept": "07", "nom_dept": "ARDECHE" }, "geometry": { "type": "Point", "coordinates": [ 4.572011647087397, 44.655376779625755 ] } },
{ "type": "Feature", "properties": { "nom_com": "PRUNET", "insee_com": "07187", "code_cant": "15", "code_arr": "1", "code_dept": "07", "nom_dept": "ARDECHE" }, "geometry": { "type": "Point", "coordinates": [ 4.254459554034975, 44.595358597390032 ] } },
{ "type": "Feature", "properties": { "nom_com": "SAINT-THOME", "insee_com": "07300", "code_cant": "12", "code_arr": "2", "code_dept": "07", "nom_dept": "ARDECHE" }, "geometry": { "type": "Point", "coordinates": [ 4.619473393828849, 44.502064031060115 ] } },
{ "type": "Feature", "properties": { "nom_com": "SAINT-PRIEST", "insee_com": "07288", "code_cant": "10", "code_arr": "2", "code_dept": "07", "nom_dept": "ARDECHE" }, "geometry": { "type": "Point", "coordinates": [ 4.535687889746635, 44.713325260964588 ] } },
{ "type": "Feature", "properties": { "nom_com": "LE BEAGE", "insee_com": "07026", "code_cant": "13", "code_arr": "1", "code_dept": "07", "nom_dept": "ARDECHE" }, "geometry": { "type": "Point", "coordinates": [ 4.129339649307155, 44.855274157004928 ] } },
{ "type": "Feature", "properties": { "nom_com": "LES OLLIERES-SUR-EYRIEUX", "insee_com": "07167", "code_cant": "06", "code_arr": "2", "code_dept": "07", "nom_dept": "ARDECHE" }, "geometry": { "type": "Point", "coordinates": [ 4.619725246590114, 44.810294362393925 ] } },
{ "type": "Feature", "properties": { "nom_com": "SAINT-CYR", "insee_com": "07227", "code_cant": "01", "code_arr": "3", "code_dept": "07", "nom_dept": "ARDECHE" }, "geometry": { "type": "Point", "coordinates": [ 4.73674547663323, 45.249170349791648 ] } },
{ "type": "Feature", "properties": { "nom_com": "SAINT-JACQUES-D'ATTICIEUX", "insee_com": "07243", "code_cant": "11", "code_arr": "3", "code_dept": "07", "nom_dept": "ARDECHE" }, "geometry": { "type": "Point", "coordinates": [ 4.663312831773811, 45.332504160924508 ] } },
{ "type": "Feature", "properties": { "nom_com": "VOGUE", "insee_com": "07348", "code_cant": "15", "code_arr": "1", "code_dept": "07", "nom_dept": "ARDECHE" }, "geometry": { "type": "Point", "coordinates": [ 4.41120349511703, 44.557310871808852 ] } },
{ "type": "Feature", "properties": { "nom_com": "LE TEIL", "insee_com": "07319", "code_cant": "12", "code_arr": "2", "code_dept": "07", "nom_dept": "ARDECHE" }, "geometry": { "type": "Point", "coordinates": [ 4.664225406146018, 44.54288217370609 ] } },
{ "type": "Feature", "properties": { "nom_com": "SAINT-ROMAIN-DE-LERPS", "insee_com": "07293", "code_cant": "07", "code_arr": "3", "code_dept": "07", "nom_dept": "ARDECHE" }, "geometry": { "type": "Point", "coordinates": [ 4.795688577755721, 44.976105295822961 ] } },
{ "type": "Feature", "properties": { "nom_com": "UCEL", "insee_com": "07325", "code_cant": "03", "code_arr": "1", "code_dept": "07", "nom_dept": "ARDECHE" }, "geometry": { "type": "Point", "coordinates": [ 4.387999292145716, 44.643150351276176 ] } },
{ "type": "Feature", "properties": { "nom_com": "SAINT-JULIEN-LE-ROUX", "insee_com": "07257", "code_cant": "17", "code_arr": "3", "code_dept": "07", "nom_dept": "ARDECHE" }, "geometry": { "type": "Point", "coordinates": [ 4.675293644454657, 44.867670426986543 ] } },
{ "type": "Feature", "properties": { "nom_com": "CHARMES-SUR-RHONE", "insee_com": "07055", "code_cant": "17", "code_arr": "2", "code_dept": "07", "nom_dept": "ARDECHE" }, "geometry": { "type": "Point", "coordinates": [ 4.833718866603989, 44.866977441080877 ] } },
{ "type": "Feature", "properties": { "nom_com": "VINZIEUX", "insee_com": "07344", "code_cant": "11", "code_arr": "3", "code_dept": "07", "nom_dept": "ARDECHE" }, "geometry": { "type": "Point", "coordinates": [ 4.702310863297874, 45.330883045623139 ] } },
{ "type": "Feature", "properties": { "nom_com": "ORGNAC-L'AVEN", "insee_com": "07168", "code_cant": "15", "code_arr": "1", "code_dept": "07", "nom_dept": "ARDECHE" }, "geometry": { "type": "Point", "coordinates": [ 4.423700679161522, 44.309514399609185 ] } },
{ "type": "Feature", "properties": { "nom_com": "SAINT-JOSEPH-DES-BANCS", "insee_com": "07251", "code_cant": "03", "code_arr": "1", "code_dept": "07", "nom_dept": "ARDECHE" }, "geometry": { "type": "Point", "coordinates": [ 4.413624143627197, 44.747522057056202 ] } },
{ "type": "Feature", "properties": { "nom_com": "SAINT-APOLLINAIRE-DE-RIAS", "insee_com": "07214", "code_cant": "17", "code_arr": "3", "code_dept": "07", "nom_dept": "ARDECHE" }, "geometry": { "type": "Point", "coordinates": [ 4.59015156946206, 44.92061615277526 ] } },
{ "type": "Feature", "properties": { "nom_com": "SAINT-MARTIN-D'ARDECHE", "insee_com": "07268", "code_cant": "05", "code_arr": "2", "code_dept": "07", "nom_dept": "ARDECHE" }, "geometry": { "type": "Point", "coordinates": [ 4.573361269543675, 44.306093588980829 ] } },
{ "type": "Feature", "properties": { "nom_com": "SAINT-REMEZE", "insee_com": "07291", "code_cant": "15", "code_arr": "2", "code_dept": "07", "nom_dept": "ARDECHE" }, "geometry": { "type": "Point", "coordinates": [ 4.496148504757299, 44.377962782487614 ] } },
{ "type": "Feature", "properties": { "nom_com": "LANAS", "insee_com": "07131", "code_cant": "04", "code_arr": "1", "code_dept": "07", "nom_dept": "ARDECHE" }, "geometry": { "type": "Point", "coordinates": [ 4.384037273137185, 44.537139309754423 ] } },
{ "type": "Feature", "properties": { "nom_com": "BOZAS", "insee_com": "07039", "code_cant": "08", "code_arr": "3", "code_dept": "07", "nom_dept": "ARDECHE" }, "geometry": { "type": "Point", "coordinates": [ 4.648268394436987, 45.057938248948965 ] } },
{ "type": "Feature", "properties": { "nom_com": "VERNOSC-LES-ANNONAY", "insee_com": "07337", "code_cant": "02", "code_arr": "3", "code_dept": "07", "nom_dept": "ARDECHE" }, "geometry": { "type": "Point", "coordinates": [ 4.723527942494702, 45.221678693831784 ] } },
{ "type": "Feature", "properties": { "nom_com": "CHAMPAGNE", "insee_com": "07051", "code_cant": "11", "code_arr": "3", "code_dept": "07", "nom_dept": "ARDECHE" }, "geometry": { "type": "Point", "coordinates": [ 4.798951205730712, 45.276940219374666 ] } },
{ "type": "Feature", "properties": { "nom_com": "CHAZEAUX", "insee_com": "07062", "code_cant": "15", "code_arr": "1", "code_dept": "07", "nom_dept": "ARDECHE" }, "geometry": { "type": "Point", "coordinates": [ 4.299007143056576, 44.595044790490761 ] } },
{ "type": "Feature", "properties": { "nom_com": "TAURIERS", "insee_com": "07318", "code_cant": "15", "code_arr": "1", "code_dept": "07", "nom_dept": "ARDECHE" }, "geometry": { "type": "Point", "coordinates": [ 4.273152934393556, 44.552100219806654 ] } },
{ "type": "Feature", "properties": { "nom_com": "SAINT-ETIENNE-DE-VALOUX", "insee_com": "07234", "code_cant": "11", "code_arr": "3", "code_dept": "07", "nom_dept": "ARDECHE" }, "geometry": { "type": "Point", "coordinates": [ 4.777269489773007, 45.243602156753049 ] } },
{ "type": "Feature", "properties": { "nom_com": "SAINT-MICHEL-DE-BOULOGNE", "insee_com": "07277", "code_cant": "04", "code_arr": "1", "code_dept": "07", "nom_dept": "ARDECHE" }, "geometry": { "type": "Point", "coordinates": [ 4.432963084500274, 44.69869313236444 ] } },
{ "type": "Feature", "properties": { "nom_com": "GROSPIERRES", "insee_com": "07101", "code_cant": "15", "code_arr": "1", "code_dept": "07", "nom_dept": "ARDECHE" }, "geometry": { "type": "Point", "coordinates": [ 4.286103418996258, 44.393243348983695 ] } },
{ "type": "Feature", "properties": { "nom_com": "GLUN", "insee_com": "07097", "code_cant": "14", "code_arr": "3", "code_dept": "07", "nom_dept": "ARDECHE" }, "geometry": { "type": "Point", "coordinates": [ 4.824559196728776, 45.00675357323216 ] } },
{ "type": "Feature", "properties": { "nom_com": "COLOMBIER-LE-CARDINAL", "insee_com": "07067", "code_cant": "11", "code_arr": "3", "code_dept": "07", "nom_dept": "ARDECHE" }, "geometry": { "type": "Point", "coordinates": [ 4.745865996795501, 45.264883136862508 ] } },
{ "type": "Feature", "properties": { "nom_com": "SAINT-MICHEL-D'AURANCE", "insee_com": "07276", "code_cant": "06", "code_arr": "3", "code_dept": "07", "nom_dept": "ARDECHE" }, "geometry": { "type": "Point", "coordinates": [ 4.455787483762152, 44.898745058159051 ] } },
{ "type": "Feature", "properties": { "nom_com": "SAINT-ALBAN-AURIOLLES", "insee_com": "07207", "code_cant": "15", "code_arr": "1", "code_dept": "07", "nom_dept": "ARDECHE" }, "geometry": { "type": "Point", "coordinates": [ 4.294596327216852, 44.434384349317533 ] } },
{ "type": "Feature", "properties": { "nom_com": "SOYONS", "insee_com": "07316", "code_cant": "17", "code_arr": "3", "code_dept": "07", "nom_dept": "ARDECHE" }, "geometry": { "type": "Point", "coordinates": [ 4.851286919574777, 44.891445873493467 ] } },
{ "type": "Feature", "properties": { "nom_com": "VILLEVOCANCE", "insee_com": "07342", "code_cant": "02", "code_arr": "3", "code_dept": "07", "nom_dept": "ARDECHE" }, "geometry": { "type": "Point", "coordinates": [ 4.595436063753681, 45.225785595403494 ] } },
{ "type": "Feature", "properties": { "nom_com": "SAINTE-EULALIE", "insee_com": "07235", "code_cant": "13", "code_arr": "1", "code_dept": "07", "nom_dept": "ARDECHE" }, "geometry": { "type": "Point", "coordinates": [ 4.185647170769077, 44.828461794627707 ] } },
{ "type": "Feature", "properties": { "nom_com": "BOGY", "insee_com": "07036", "code_cant": "11", "code_arr": "3", "code_dept": "07", "nom_dept": "ARDECHE" }, "geometry": { "type": "Point", "coordinates": [ 4.767969132838063, 45.279433022809975 ] } },
{ "type": "Feature", "properties": { "nom_com": "VERNON", "insee_com": "07336", "code_cant": "16", "code_arr": "1", "code_dept": "07", "nom_dept": "ARDECHE" }, "geometry": { "type": "Point", "coordinates": [ 4.225460531676615, 44.506380550619646 ] } },
{ "type": "Feature", "properties": { "nom_com": "BEAUCHASTEL", "insee_com": "07027", "code_cant": "17", "code_arr": "2", "code_dept": "07", "nom_dept": "ARDECHE" }, "geometry": { "type": "Point", "coordinates": [ 4.797898020577057, 44.829743351832818 ] } },
{ "type": "Feature", "properties": { "nom_com": "SAINT-SYMPHORIEN-SOUS-CHOMERAC", "insee_com": "07298", "code_cant": "09", "code_arr": "2", "code_dept": "07", "nom_dept": "ARDECHE" }, "geometry": { "type": "Point", "coordinates": [ 4.70622322860516, 44.728325730970155 ] } },
{ "type": "Feature", "properties": { "nom_com": "SAINT-PAUL-LE-JEUNE", "insee_com": "07280", "code_cant": "16", "code_arr": "1", "code_dept": "07", "nom_dept": "ARDECHE" }, "geometry": { "type": "Point", "coordinates": [ 4.155065187394754, 44.333113592199744 ] } },
{ "type": "Feature", "properties": { "nom_com": "LIMONY", "insee_com": "07143", "code_cant": "11", "code_arr": "3", "code_dept": "07", "nom_dept": "ARDECHE" }, "geometry": { "type": "Point", "coordinates": [ 4.750200002163233, 45.353748439834838 ] } },
{ "type": "Feature", "properties": { "nom_com": "CORNAS", "insee_com": "07070", "code_cant": "07", "code_arr": "3", "code_dept": "07", "nom_dept": "ARDECHE" }, "geometry": { "type": "Point", "coordinates": [ 4.841254607770788, 44.965404341586868 ] } },
{ "type": "Feature", "properties": { "nom_com": "CHEMINAS", "insee_com": "07063", "code_cant": "14", "code_arr": "3", "code_dept": "07", "nom_dept": "ARDECHE" }, "geometry": { "type": "Point", "coordinates": [ 4.740842271737367, 45.130553016248427 ] } },
{ "type": "Feature", "properties": { "nom_com": "SAINT-CIRGUES-DE-PRADES", "insee_com": "07223", "code_cant": "13", "code_arr": "1", "code_dept": "07", "nom_dept": "ARDECHE" }, "geometry": { "type": "Point", "coordinates": [ 4.274464081023521, 44.619691287548761 ] } },
{ "type": "Feature", "properties": { "nom_com": "SAINT-DIDIER-SOUS-AUBENAS", "insee_com": "07229", "code_cant": "04", "code_arr": "1", "code_dept": "07", "nom_dept": "ARDECHE" }, "geometry": { "type": "Point", "coordinates": [ 4.419476804227186, 44.611651109473684 ] } },
{ "type": "Feature", "properties": { "nom_com": "LABATIE-D'ANDAURE", "insee_com": "07114", "code_cant": "08", "code_arr": "3", "code_dept": "07", "nom_dept": "ARDECHE" }, "geometry": { "type": "Point", "coordinates": [ 4.494968524569741, 45.032864122622243 ] } },
{ "type": "Feature", "properties": { "nom_com": "FELINES", "insee_com": "07089", "code_cant": "11", "code_arr": "3", "code_dept": "07", "nom_dept": "ARDECHE" }, "geometry": { "type": "Point", "coordinates": [ 4.727087455853632, 45.315726421901921 ] } },
{ "type": "Feature", "properties": { "nom_com": "MAUVES", "insee_com": "07152", "code_cant": "14", "code_arr": "3", "code_dept": "07", "nom_dept": "ARDECHE" }, "geometry": { "type": "Point", "coordinates": [ 4.819340006128279, 45.028988961672276 ] } },
{ "type": "Feature", "properties": { "nom_com": "SAINT-ANDRE-LACHAMP", "insee_com": "07213", "code_cant": "16", "code_arr": "1", "code_dept": "07", "nom_dept": "ARDECHE" }, "geometry": { "type": "Point", "coordinates": [ 4.152141698118434, 44.507607645145292 ] } },
{ "type": "Feature", "properties": { "nom_com": "VINEZAC", "insee_com": "07343", "code_cant": "04", "code_arr": "1", "code_dept": "07", "nom_dept": "ARDECHE" }, "geometry": { "type": "Point", "coordinates": [ 4.332197972171725, 44.546937487602492 ] } },
{ "type": "Feature", "properties": { "nom_com": "SAINT-BARTHELEMY-GROZON", "insee_com": "07216", "code_cant": "08", "code_arr": "3", "code_dept": "07", "nom_dept": "ARDECHE" }, "geometry": { "type": "Point", "coordinates": [ 4.648897386198207, 44.959695529706011 ] } },
{ "type": "Feature", "properties": { "nom_com": "ISSAMOULENC", "insee_com": "07104", "code_cant": "06", "code_arr": "2", "code_dept": "07", "nom_dept": "ARDECHE" }, "geometry": { "type": "Point", "coordinates": [ 4.4560744007499, 44.788153952222828 ] } },
{ "type": "Feature", "properties": { "nom_com": "MARS", "insee_com": "07151", "code_cant": "06", "code_arr": "3", "code_dept": "07", "nom_dept": "ARDECHE" }, "geometry": { "type": "Point", "coordinates": [ 4.328833372913254, 45.010704535267585 ] } },
{ "type": "Feature", "properties": { "nom_com": "LA VOULTE-SUR-RHONE", "insee_com": "07349", "code_cant": "17", "code_arr": "2", "code_dept": "07", "nom_dept": "ARDECHE" }, "geometry": { "type": "Point", "coordinates": [ 4.780420048426145, 44.801478129381991 ] } },
{ "type": "Feature", "properties": { "nom_com": "CHAMPIS", "insee_com": "07052", "code_cant": "08", "code_arr": "3", "code_dept": "07", "nom_dept": "ARDECHE" }, "geometry": { "type": "Point", "coordinates": [ 4.75219120853516, 44.95598953069419 ] } },
{ "type": "Feature", "properties": { "nom_com": "SAINT-JEAN-CHAMBRE", "insee_com": "07244", "code_cant": "17", "code_arr": "3", "code_dept": "07", "nom_dept": "ARDECHE" }, "geometry": { "type": "Point", "coordinates": [ 4.561548420739269, 44.908233053859675 ] } },
{ "type": "Feature", "properties": { "nom_com": "BALAZUC", "insee_com": "07023", "code_cant": "15", "code_arr": "1", "code_dept": "07", "nom_dept": "ARDECHE" }, "geometry": { "type": "Point", "coordinates": [ 4.373030325663526, 44.50849805536194 ] } },
{ "type": "Feature", "properties": { "nom_com": "ARLEBOSC", "insee_com": "07014", "code_cant": "08", "code_arr": "3", "code_dept": "07", "nom_dept": "ARDECHE" }, "geometry": { "type": "Point", "coordinates": [ 4.628439953732184, 45.04029160734175 ] } },
{ "type": "Feature", "properties": { "nom_com": "SAINT-SYLVESTRE", "insee_com": "07297", "code_cant": "08", "code_arr": "3", "code_dept": "07", "nom_dept": "ARDECHE" }, "geometry": { "type": "Point", "coordinates": [ 4.750375087474601, 44.988835074313258 ] } },
{ "type": "Feature", "properties": { "nom_com": "QUINTENAS", "insee_com": "07188", "code_cant": "08", "code_arr": "3", "code_dept": "07", "nom_dept": "ARDECHE" }, "geometry": { "type": "Point", "coordinates": [ 4.694688806560738, 45.19211483137974 ] } },
{ "type": "Feature", "properties": { "nom_com": "BOUCIEU-LE-ROI", "insee_com": "07040", "code_cant": "14", "code_arr": "3", "code_dept": "07", "nom_dept": "ARDECHE" }, "geometry": { "type": "Point", "coordinates": [ 4.688073467578453, 45.02872350378361 ] } },
{ "type": "Feature", "properties": { "nom_com": "MONTREAL", "insee_com": "07162", "code_cant": "15", "code_arr": "1", "code_dept": "07", "nom_dept": "ARDECHE" }, "geometry": { "type": "Point", "coordinates": [ 4.29507532926081, 44.517674137385548 ] } },
{ "type": "Feature", "properties": { "nom_com": "TALENCIEUX", "insee_com": "07317", "code_cant": "02", "code_arr": "3", "code_dept": "07", "nom_dept": "ARDECHE" }, "geometry": { "type": "Point", "coordinates": [ 4.773946320722575, 45.219288491414382 ] } },
{ "type": "Feature", "properties": { "nom_com": "SAINT-SYMPHORIEN-DE-MAHUN", "insee_com": "07299", "code_cant": "08", "code_arr": "3", "code_dept": "07", "nom_dept": "ARDECHE" }, "geometry": { "type": "Point", "coordinates": [ 4.549717069094982, 45.15629903175136 ] } },
{ "type": "Feature", "properties": { "nom_com": "DOMPNAC", "insee_com": "07081", "code_cant": "16", "code_arr": "1", "code_dept": "07", "nom_dept": "ARDECHE" }, "geometry": { "type": "Point", "coordinates": [ 4.108033233549493, 44.562931022653231 ] } },
{ "type": "Feature", "properties": { "nom_com": "LAVEYRUNE", "insee_com": "07136", "code_cant": "13", "code_arr": "1", "code_dept": "07", "nom_dept": "ARDECHE" }, "geometry": { "type": "Point", "coordinates": [ 3.918899324381057, 44.620806121816422 ] } },
{ "type": "Feature", "properties": { "nom_com": "OZON", "insee_com": "07169", "code_cant": "11", "code_arr": "3", "code_dept": "07", "nom_dept": "ARDECHE" }, "geometry": { "type": "Point", "coordinates": [ 4.796434969239409, 45.162876018090678 ] } },
{ "type": "Feature", "properties": { "nom_com": "CREYSSEILLES", "insee_com": "07074", "code_cant": "10", "code_arr": "2", "code_dept": "07", "nom_dept": "ARDECHE" }, "geometry": { "type": "Point", "coordinates": [ 4.530088978038754, 44.759067804431069 ] } },
{ "type": "Feature", "properties": { "nom_com": "SAINT-LAGER-BRESSAC", "insee_com": "07260", "code_cant": "09", "code_arr": "2", "code_dept": "07", "nom_dept": "ARDECHE" }, "geometry": { "type": "Point", "coordinates": [ 4.71584895676871, 44.69189427079619 ] } },
{ "type": "Feature", "properties": { "nom_com": "FAUGERES", "insee_com": "07088", "code_cant": "16", "code_arr": "1", "code_dept": "07", "nom_dept": "ARDECHE" }, "geometry": { "type": "Point", "coordinates": [ 4.140361976635368, 44.478809724273049 ] } },
{ "type": "Feature", "properties": { "nom_com": "CHIROLS", "insee_com": "07065", "code_cant": "13", "code_arr": "1", "code_dept": "07", "nom_dept": "ARDECHE" }, "geometry": { "type": "Point", "coordinates": [ 4.294511595580642, 44.688758045548362 ] } },
{ "type": "Feature", "properties": { "nom_com": "INTRES", "insee_com": "07103", "code_cant": "06", "code_arr": "3", "code_dept": "07", "nom_dept": "ARDECHE" }, "geometry": { "type": "Point", "coordinates": [ 4.342984596091648, 44.987266069491405 ] } },
{ "type": "Feature", "properties": { "nom_com": "SAINT-PIERRE-LA-ROCHE", "insee_com": "07283", "code_cant": "09", "code_arr": "2", "code_dept": "07", "nom_dept": "ARDECHE" }, "geometry": { "type": "Point", "coordinates": [ 4.622040630162824, 44.653512312698084 ] } },
{ "type": "Feature", "properties": { "nom_com": "JOANNAS", "insee_com": "07109", "code_cant": "15", "code_arr": "1", "code_dept": "07", "nom_dept": "ARDECHE" }, "geometry": { "type": "Point", "coordinates": [ 4.246365776017963, 44.57279743387101 ] } },
{ "type": "Feature", "properties": { "nom_com": "LESPERON", "insee_com": "07142", "code_cant": "13", "code_arr": "1", "code_dept": "07", "nom_dept": "ARDECHE" }, "geometry": { "type": "Point", "coordinates": [ 3.894841369128809, 44.734084895269994 ] } },
{ "type": "Feature", "properties": { "nom_com": "AUBIGNAS", "insee_com": "07020", "code_cant": "12", "code_arr": "2", "code_dept": "07", "nom_dept": "ARDECHE" }, "geometry": { "type": "Point", "coordinates": [ 4.633368856468222, 44.585656570792473 ] } },
{ "type": "Feature", "properties": { "nom_com": "LE POUZIN", "insee_com": "07181", "code_cant": "09", "code_arr": "2", "code_dept": "07", "nom_dept": "ARDECHE" }, "geometry": { "type": "Point", "coordinates": [ 4.748542692391454, 44.751880779239976 ] } },
{ "type": "Feature", "properties": { "nom_com": "SAINT-CLAIR", "insee_com": "07225", "code_cant": "01", "code_arr": "3", "code_dept": "07", "nom_dept": "ARDECHE" }, "geometry": { "type": "Point", "coordinates": [ 4.687364526478064, 45.276192241024638 ] } },
{ "type": "Feature", "properties": { "nom_com": "PONT-DE-LABEAUME", "insee_com": "07178", "code_cant": "13", "code_arr": "1", "code_dept": "07", "nom_dept": "ARDECHE" }, "geometry": { "type": "Point", "coordinates": [ 4.297520663995815, 44.665762979826773 ] } },
{ "type": "Feature", "properties": { "nom_com": "LAVIOLLE", "insee_com": "07139", "code_cant": "03", "code_arr": "1", "code_dept": "07", "nom_dept": "ARDECHE" }, "geometry": { "type": "Point", "coordinates": [ 4.333751862571376, 44.762209453791243 ] } },
{ "type": "Feature", "properties": { "nom_com": "LES SALELLES", "insee_com": "07305", "code_cant": "16", "code_arr": "1", "code_dept": "07", "nom_dept": "ARDECHE" }, "geometry": { "type": "Point", "coordinates": [ 4.099270492265103, 44.435318946619986 ] } },
{ "type": "Feature", "properties": { "nom_com": "LANARCE", "insee_com": "07130", "code_cant": "13", "code_arr": "1", "code_dept": "07", "nom_dept": "ARDECHE" }, "geometry": { "type": "Point", "coordinates": [ 3.996985284606596, 44.729443550190901 ] } },
{ "type": "Feature", "properties": { "nom_com": "SAINT-GINEIS-EN-COIRON", "insee_com": "07242", "code_cant": "12", "code_arr": "1", "code_dept": "07", "nom_dept": "ARDECHE" }, "geometry": { "type": "Point", "coordinates": [ 4.539360493470356, 44.633506139233681 ] } },
{ "type": "Feature", "properties": { "nom_com": "CHATEAUNEUF-DE-VERNOUX", "insee_com": "07060", "code_cant": "17", "code_arr": "3", "code_dept": "07", "nom_dept": "ARDECHE" }, "geometry": { "type": "Point", "coordinates": [ 4.642548290830534, 44.924374485146124 ] } },
{ "type": "Feature", "properties": { "nom_com": "BEAUMONT", "insee_com": "07029", "code_cant": "16", "code_arr": "1", "code_dept": "07", "nom_dept": "ARDECHE" }, "geometry": { "type": "Point", "coordinates": [ 4.171559779353252, 44.542737786481908 ] } },
{ "type": "Feature", "properties": { "nom_com": "ROCHER", "insee_com": "07193", "code_cant": "15", "code_arr": "1", "code_dept": "07", "nom_dept": "ARDECHE" }, "geometry": { "type": "Point", "coordinates": [ 4.27970283537682, 44.580691246901338 ] } },
{ "type": "Feature", "properties": { "nom_com": "CHASSIERS", "insee_com": "07058", "code_cant": "15", "code_arr": "1", "code_dept": "07", "nom_dept": "ARDECHE" }, "geometry": { "type": "Point", "coordinates": [ 4.301262988758989, 44.565804542903997 ] } },
{ "type": "Feature", "properties": { "nom_com": "LACHAPELLE-SOUS-AUBENAS", "insee_com": "07122", "code_cant": "04", "code_arr": "1", "code_dept": "07", "nom_dept": "ARDECHE" }, "geometry": { "type": "Point", "coordinates": [ 4.358747875170939, 44.562099609643134 ] } },
{ "type": "Feature", "properties": { "nom_com": "GUILHERAND-GRANGES", "insee_com": "07102", "code_cant": "07", "code_arr": "3", "code_dept": "07", "nom_dept": "ARDECHE" }, "geometry": { "type": "Point", "coordinates": [ 4.865883794539855, 44.930533929650906 ] } },
{ "type": "Feature", "properties": { "nom_com": "SAINT-GENEST-DE-BEAUZON", "insee_com": "07238", "code_cant": "16", "code_arr": "1", "code_dept": "07", "nom_dept": "ARDECHE" }, "geometry": { "type": "Point", "coordinates": [ 4.188514805797504, 44.444642796393744 ] } },
{ "type": "Feature", "properties": { "nom_com": "PLANZOLLES", "insee_com": "07176", "code_cant": "16", "code_arr": "1", "code_dept": "07", "nom_dept": "ARDECHE" }, "geometry": { "type": "Point", "coordinates": [ 4.157811584494008, 44.486933533798492 ] } },
{ "type": "Feature", "properties": { "nom_com": "DAVEZIEUX", "insee_com": "07078", "code_cant": "01", "code_arr": "3", "code_dept": "07", "nom_dept": "ARDECHE" }, "geometry": { "type": "Point", "coordinates": [ 4.702749830050179, 45.255274313775487 ] } },
{ "type": "Feature", "properties": { "nom_com": "PRIVAS", "insee_com": "07186", "code_cant": "10", "code_arr": "2", "code_dept": "07", "nom_dept": "ARDECHE" }, "geometry": { "type": "Point", "coordinates": [ 4.594098200718942, 44.721875238761378 ] } },
{ "type": "Feature", "properties": { "nom_com": "GILHOC-SUR-ORMEZE", "insee_com": "07095", "code_cant": "08", "code_arr": "3", "code_dept": "07", "nom_dept": "ARDECHE" }, "geometry": { "type": "Point", "coordinates": [ 4.677123954468014, 44.985216721749389 ] } },
{ "type": "Feature", "properties": { "nom_com": "LALOUVESC", "insee_com": "07128", "code_cant": "08", "code_arr": "3", "code_dept": "07", "nom_dept": "ARDECHE" }, "geometry": { "type": "Point", "coordinates": [ 4.525930583587019, 45.115660308520049 ] } },
{ "type": "Feature", "properties": { "nom_com": "BESSAS", "insee_com": "07033", "code_cant": "15", "code_arr": "1", "code_dept": "07", "nom_dept": "ARDECHE" }, "geometry": { "type": "Point", "coordinates": [ 4.297996286650834, 44.337656370983993 ] } },
{ "type": "Feature", "properties": { "nom_com": "SAINT-SERNIN", "insee_com": "07296", "code_cant": "04", "code_arr": "1", "code_dept": "07", "nom_dept": "ARDECHE" }, "geometry": { "type": "Point", "coordinates": [ 4.38232075948595, 44.576314083089599 ] } },
{ "type": "Feature", "properties": { "nom_com": "BEAULIEU", "insee_com": "07028", "code_cant": "16", "code_arr": "1", "code_dept": "07", "nom_dept": "ARDECHE" }, "geometry": { "type": "Point", "coordinates": [ 4.250762352958644, 44.354689006420415 ] } },
{ "type": "Feature", "properties": { "nom_com": "SAINT-ETIENNE-DE-FONTBELLON", "insee_com": "07231", "code_cant": "04", "code_arr": "1", "code_dept": "07", "nom_dept": "ARDECHE" }, "geometry": { "type": "Point", "coordinates": [ 4.373805380016717, 44.598278819214165 ] } },
{ "type": "Feature", "properties": { "nom_com": "LAFARRE", "insee_com": "07124", "code_cant": "08", "code_arr": "3", "code_dept": "07", "nom_dept": "ARDECHE" }, "geometry": { "type": "Point", "coordinates": [ 4.51625176006795, 45.078277400333647 ] } },
{ "type": "Feature", "properties": { "nom_com": "ALBON-D'ARDECHE", "insee_com": "07006", "code_cant": "06", "code_arr": "2", "code_dept": "07", "nom_dept": "ARDECHE" }, "geometry": { "type": "Point", "coordinates": [ 4.425710124506705, 44.814414433177603 ] } },
{ "type": "Feature", "properties": { "nom_com": "CHOMERAC", "insee_com": "07066", "code_cant": "10", "code_arr": "2", "code_dept": "07", "nom_dept": "ARDECHE" }, "geometry": { "type": "Point", "coordinates": [ 4.669941031627981, 44.710550380999109 ] } },
{ "type": "Feature", "properties": { "nom_com": "TOULAUD", "insee_com": "07323", "code_cant": "17", "code_arr": "3", "code_dept": "07", "nom_dept": "ARDECHE" }, "geometry": { "type": "Point", "coordinates": [ 4.79210971574772, 44.901851354790075 ] } },
{ "type": "Feature", "properties": { "nom_com": "LAURAC-EN-VIVARAIS", "insee_com": "07134", "code_cant": "15", "code_arr": "1", "code_dept": "07", "nom_dept": "ARDECHE" }, "geometry": { "type": "Point", "coordinates": [ 4.288404258143108, 44.503665467078079 ] } },
{ "type": "Feature", "properties": { "nom_com": "SAINT-CIERGE-SOUS-LE-CHEYLARD", "insee_com": "07222", "code_cant": "06", "code_arr": "3", "code_dept": "07", "nom_dept": "ARDECHE" }, "geometry": { "type": "Point", "coordinates": [ 4.454233794203794, 44.926477522177358 ] } },
{ "type": "Feature", "properties": { "nom_com": "LARGENTIERE", "insee_com": "07132", "code_cant": "15", "code_arr": "1", "code_dept": "07", "nom_dept": "ARDECHE" }, "geometry": { "type": "Point", "coordinates": [ 4.301411279122433, 44.533341234977954 ] } },
{ "type": "Feature", "properties": { "nom_com": "SARRAS", "insee_com": "07308", "code_cant": "11", "code_arr": "3", "code_dept": "07", "nom_dept": "ARDECHE" }, "geometry": { "type": "Point", "coordinates": [ 4.784597311935884, 45.187196850075047 ] } },
{ "type": "Feature", "properties": { "nom_com": "BIDON", "insee_com": "07034", "code_cant": "05", "code_arr": "2", "code_dept": "07", "nom_dept": "ARDECHE" }, "geometry": { "type": "Point", "coordinates": [ 4.544405576667641, 44.356894854245226 ] } },
{ "type": "Feature", "properties": { "nom_com": "LALEVADE-D'ARDECHE", "insee_com": "07127", "code_cant": "13", "code_arr": "1", "code_dept": "07", "nom_dept": "ARDECHE" }, "geometry": { "type": "Point", "coordinates": [ 4.313137927131148, 44.652798283410689 ] } },
{ "type": "Feature", "properties": { "nom_com": "FREYSSENET", "insee_com": "07092", "code_cant": "10", "code_arr": "2", "code_dept": "07", "nom_dept": "ARDECHE" }, "geometry": { "type": "Point", "coordinates": [ 4.54675835993375, 44.689026237646338 ] } },
{ "type": "Feature", "properties": { "nom_com": "LAVAL-D'AURELLE", "insee_com": "07135", "code_cant": "13", "code_arr": "1", "code_dept": "07", "nom_dept": "ARDECHE" }, "geometry": { "type": "Point", "coordinates": [ 3.972745949505157, 44.571927900970742 ] } },
{ "type": "Feature", "properties": { "nom_com": "SAINT-PRIVAT", "insee_com": "07289", "code_cant": "04", "code_arr": "1", "code_dept": "07", "nom_dept": "ARDECHE" }, "geometry": { "type": "Point", "coordinates": [ 4.423556261602261, 44.628662809708466 ] } },
{ "type": "Feature", "properties": { "nom_com": "LABEGUDE", "insee_com": "07116", "code_cant": "03", "code_arr": "1", "code_dept": "07", "nom_dept": "ARDECHE" }, "geometry": { "type": "Point", "coordinates": [ 4.35699083982174, 44.642038416588335 ] } },
{ "type": "Feature", "properties": { "nom_com": "BROSSAINC", "insee_com": "07044", "code_cant": "11", "code_arr": "3", "code_dept": "07", "nom_dept": "ARDECHE" }, "geometry": { "type": "Point", "coordinates": [ 4.678871995136721, 45.327363748764689 ] } },
{ "type": "Feature", "properties": { "nom_com": "JAUNAC", "insee_com": "07108", "code_cant": "06", "code_arr": "3", "code_dept": "07", "nom_dept": "ARDECHE" }, "geometry": { "type": "Point", "coordinates": [ 4.392169895740126, 44.920312533063573 ] } },
{ "type": "Feature", "properties": { "nom_com": "BURZET", "insee_com": "07045", "code_cant": "13", "code_arr": "1", "code_dept": "07", "nom_dept": "ARDECHE" }, "geometry": { "type": "Point", "coordinates": [ 4.233838081432302, 44.748319628937907 ] } },
{ "type": "Feature", "properties": { "nom_com": "SAINT-PIERRE-DE-COLOMBIER", "insee_com": "07282", "code_cant": "13", "code_arr": "1", "code_dept": "07", "nom_dept": "ARDECHE" }, "geometry": { "type": "Point", "coordinates": [ 4.266582224045411, 44.7105079043993 ] } },
{ "type": "Feature", "properties": { "nom_com": "SAINT-ANDRE-EN-VIVARAIS", "insee_com": "07212", "code_cant": "06", "code_arr": "3", "code_dept": "07", "nom_dept": "ARDECHE" }, "geometry": { "type": "Point", "coordinates": [ 4.409149088170966, 45.116306378680342 ] } },
{ "type": "Feature", "properties": { "nom_com": "LA SOUCHE", "insee_com": "07315", "code_cant": "13", "code_arr": "1", "code_dept": "07", "nom_dept": "ARDECHE" }, "geometry": { "type": "Point", "coordinates": [ 4.162591999281825, 44.627663250620856 ] } },
{ "type": "Feature", "properties": { "nom_com": "SAINT-SAUVEUR-DE-CRUZIERES", "insee_com": "07294", "code_cant": "16", "code_arr": "1", "code_dept": "07", "nom_dept": "ARDECHE" }, "geometry": { "type": "Point", "coordinates": [ 4.258149068167394, 44.295221520584889 ] } },
{ "type": "Feature", "properties": { "nom_com": "ROSIERES", "insee_com": "07199", "code_cant": "16", "code_arr": "1", "code_dept": "07", "nom_dept": "ARDECHE" }, "geometry": { "type": "Point", "coordinates": [ 4.261522601296545, 44.49317810359355 ] } },
{ "type": "Feature", "properties": { "nom_com": "JAUJAC", "insee_com": "07107", "code_cant": "13", "code_arr": "1", "code_dept": "07", "nom_dept": "ARDECHE" }, "geometry": { "type": "Point", "coordinates": [ 4.237644981266014, 44.629219854040898 ] } },
{ "type": "Feature", "properties": { "nom_com": "DEVESSET", "insee_com": "07080", "code_cant": "06", "code_arr": "3", "code_dept": "07", "nom_dept": "ARDECHE" }, "geometry": { "type": "Point", "coordinates": [ 4.392524204910161, 45.065927331791833 ] } },
{ "type": "Feature", "properties": { "nom_com": "SAINT-GEORGES-LES-BAINS", "insee_com": "07240", "code_cant": "17", "code_arr": "2", "code_dept": "07", "nom_dept": "ARDECHE" }, "geometry": { "type": "Point", "coordinates": [ 4.809952478589767, 44.859130871860287 ] } },
{ "type": "Feature", "properties": { "nom_com": "MAZAN-L'ABBAYE", "insee_com": "07154", "code_cant": "13", "code_arr": "1", "code_dept": "07", "nom_dept": "ARDECHE" }, "geometry": { "type": "Point", "coordinates": [ 4.08121605772839, 44.724853337854334 ] } },
{ "type": "Feature", "properties": { "nom_com": "MALARCE-SUR-LA-THINES", "insee_com": "07147", "code_cant": "16", "code_arr": "1", "code_dept": "07", "nom_dept": "ARDECHE" }, "geometry": { "type": "Point", "coordinates": [ 4.050368003753173, 44.478713343995381 ] } },
{ "type": "Feature", "properties": { "nom_com": "SAINT-MICHEL-DE-CHABRILLANOUX", "insee_com": "07278", "code_cant": "06", "code_arr": "2", "code_dept": "07", "nom_dept": "ARDECHE" }, "geometry": { "type": "Point", "coordinates": [ 4.612562856072429, 44.837315282517359 ] } },
{ "type": "Feature", "properties": { "nom_com": "CHANEAC", "insee_com": "07054", "code_cant": "06", "code_arr": "3", "code_dept": "07", "nom_dept": "ARDECHE" }, "geometry": { "type": "Point", "coordinates": [ 4.307663207524151, 44.929993259883247 ] } },
{ "type": "Feature", "properties": { "nom_com": "SANILHAC", "insee_com": "07307", "code_cant": "15", "code_arr": "1", "code_dept": "07", "nom_dept": "ARDECHE" }, "geometry": { "type": "Point", "coordinates": [ 4.231937788406777, 44.533112758349475 ] } },
{ "type": "Feature", "properties": { "nom_com": "LABOULE", "insee_com": "07118", "code_cant": "16", "code_arr": "1", "code_dept": "07", "nom_dept": "ARDECHE" }, "geometry": { "type": "Point", "coordinates": [ 4.169129925161432, 44.595564749650954 ] } },
{ "type": "Feature", "properties": { "nom_com": "LAGORCE", "insee_com": "07126", "code_cant": "15", "code_arr": "1", "code_dept": "07", "nom_dept": "ARDECHE" }, "geometry": { "type": "Point", "coordinates": [ 4.431756221666421, 44.444597466947329 ] } },
{ "type": "Feature", "properties": { "nom_com": "ALISSAS", "insee_com": "07008", "code_cant": "10", "code_arr": "2", "code_dept": "07", "nom_dept": "ARDECHE" }, "geometry": { "type": "Point", "coordinates": [ 4.624425822678632, 44.706847009067367 ] } },
{ "type": "Feature", "properties": { "nom_com": "VESSEAUX", "insee_com": "07339", "code_cant": "04", "code_arr": "1", "code_dept": "07", "nom_dept": "ARDECHE" }, "geometry": { "type": "Point", "coordinates": [ 4.444044011667211, 44.65739041845908 ] } },
{ "type": "Feature", "properties": { "nom_com": "ALBA-LA-ROMAINE", "insee_com": "07005", "code_cant": "12", "code_arr": "2", "code_dept": "07", "nom_dept": "ARDECHE" }, "geometry": { "type": "Point", "coordinates": [ 4.595364431906128, 44.554216608394526 ] } },
{ "type": "Feature", "properties": { "nom_com": "SAINT-SAUVEUR-DE-MONTAGUT", "insee_com": "07295", "code_cant": "06", "code_arr": "2", "code_dept": "07", "nom_dept": "ARDECHE" }, "geometry": { "type": "Point", "coordinates": [ 4.571896002739432, 44.820946546346534 ] } },
{ "type": "Feature", "properties": { "nom_com": "VEYRAS", "insee_com": "07340", "code_cant": "10", "code_arr": "2", "code_dept": "07", "nom_dept": "ARDECHE" }, "geometry": { "type": "Point", "coordinates": [ 4.557081636481962, 44.734284030324893 ] } },
{ "type": "Feature", "properties": { "nom_com": "ALBOUSSIERE", "insee_com": "07007", "code_cant": "08", "code_arr": "3", "code_dept": "07", "nom_dept": "ARDECHE" }, "geometry": { "type": "Point", "coordinates": [ 4.734921254552339, 44.939625974710601 ] } },
{ "type": "Feature", "properties": { "nom_com": "SAINT-ETIENNE-DE-SERRE", "insee_com": "07233", "code_cant": "06", "code_arr": "2", "code_dept": "07", "nom_dept": "ARDECHE" }, "geometry": { "type": "Point", "coordinates": [ 4.523320302593091, 44.801388863329855 ] } },
{ "type": "Feature", "properties": { "nom_com": "VANOSC", "insee_com": "07333", "code_cant": "02", "code_arr": "3", "code_dept": "07", "nom_dept": "ARDECHE" }, "geometry": { "type": "Point", "coordinates": [ 4.534788758524761, 45.224298663595071 ] } },
{ "type": "Feature", "properties": { "nom_com": "BAIX", "insee_com": "07022", "code_cant": "09", "code_arr": "2", "code_dept": "07", "nom_dept": "ARDECHE" }, "geometry": { "type": "Point", "coordinates": [ 4.750881073531659, 44.706520850067641 ] } },
{ "type": "Feature", "properties": { "nom_com": "SAINT-CLEMENT", "insee_com": "07226", "code_cant": "06", "code_arr": "3", "code_dept": "07", "nom_dept": "ARDECHE" }, "geometry": { "type": "Point", "coordinates": [ 4.260711509659175, 44.950429456694273 ] } },
{ "type": "Feature", "properties": { "nom_com": "MONTSELGUES", "insee_com": "07163", "code_cant": "16", "code_arr": "1", "code_dept": "07", "nom_dept": "ARDECHE" }, "geometry": { "type": "Point", "coordinates": [ 4.003655214612584, 44.532960071060906 ] } },
{ "type": "Feature", "properties": { "nom_com": "BORNE", "insee_com": "07038", "code_cant": "13", "code_arr": "1", "code_dept": "07", "nom_dept": "ARDECHE" }, "geometry": { "type": "Point", "coordinates": [ 4.041305546650706, 44.616924250009674 ] } },
{ "type": "Feature", "properties": { "nom_com": "SECHERAS", "insee_com": "07312", "code_cant": "14", "code_arr": "3", "code_dept": "07", "nom_dept": "ARDECHE" }, "geometry": { "type": "Point", "coordinates": [ 4.776842545086579, 45.128682764093192 ] } },
{ "type": "Feature", "properties": { "nom_com": "LACHAMP-RAPHAEL", "insee_com": "07120", "code_cant": "03", "code_arr": "1", "code_dept": "07", "nom_dept": "ARDECHE" }, "geometry": { "type": "Point", "coordinates": [ 4.28759263170744, 44.800494851806555 ] } },
{ "type": "Feature", "properties": { "nom_com": "SAINT-JULIEN-EN-SAINT-ALBAN", "insee_com": "07255", "code_cant": "09", "code_arr": "2", "code_dept": "07", "nom_dept": "ARDECHE" }, "geometry": { "type": "Point", "coordinates": [ 4.693189472302665, 44.758272285862489 ] } },
{ "type": "Feature", "properties": { "nom_com": "AUBENAS", "insee_com": "07019", "code_cant": "99", "code_arr": "1", "code_dept": "07", "nom_dept": "ARDECHE" }, "geometry": { "type": "Point", "coordinates": [ 4.395683794947902, 44.610310544151446 ] } },
{ "type": "Feature", "properties": { "nom_com": "ETABLES", "insee_com": "07086", "code_cant": "14", "code_arr": "3", "code_dept": "07", "nom_dept": "ARDECHE" }, "geometry": { "type": "Point", "coordinates": [ 4.738906564046009, 45.094342089451402 ] } },
{ "type": "Feature", "properties": { "nom_com": "SAINT-MARTIN-DE-VALAMAS", "insee_com": "07269", "code_cant": "06", "code_arr": "3", "code_dept": "07", "nom_dept": "ARDECHE" }, "geometry": { "type": "Point", "coordinates": [ 4.370976163567685, 44.936583454132247 ] } },
{ "type": "Feature", "properties": { "nom_com": "SAINT-VINCENT-DE-BARRES", "insee_com": "07302", "code_cant": "09", "code_arr": "2", "code_dept": "07", "nom_dept": "ARDECHE" }, "geometry": { "type": "Point", "coordinates": [ 4.707351394243051, 44.657600446042281 ] } },
{ "type": "Feature", "properties": { "nom_com": "SAMPZON", "insee_com": "07306", "code_cant": "15", "code_arr": "1", "code_dept": "07", "nom_dept": "ARDECHE" }, "geometry": { "type": "Point", "coordinates": [ 4.331697380387232, 44.413100813661686 ] } },
{ "type": "Feature", "properties": { "nom_com": "LYAS", "insee_com": "07146", "code_cant": "10", "code_arr": "2", "code_dept": "07", "nom_dept": "ARDECHE" }, "geometry": { "type": "Point", "coordinates": [ 4.596494956520287, 44.75685324833902 ] } },
{ "type": "Feature", "properties": { "nom_com": "SCEAUTRES", "insee_com": "07311", "code_cant": "12", "code_arr": "2", "code_dept": "07", "nom_dept": "ARDECHE" }, "geometry": { "type": "Point", "coordinates": [ 4.607413240876981, 44.616680970553134 ] } },
{ "type": "Feature", "properties": { "nom_com": "ANTRAIGUES-SUR-VOLANE", "insee_com": "07011", "code_cant": "03", "code_arr": "1", "code_dept": "07", "nom_dept": "ARDECHE" }, "geometry": { "type": "Point", "coordinates": [ 4.356040564044259, 44.738736612459796 ] } },
{ "type": "Feature", "properties": { "nom_com": "ISSANLAS", "insee_com": "07105", "code_cant": "13", "code_arr": "1", "code_dept": "07", "nom_dept": "ARDECHE" }, "geometry": { "type": "Point", "coordinates": [ 4.015210049039043, 44.767005047969469 ] } },
{ "type": "Feature", "properties": { "nom_com": "SATILLIEU", "insee_com": "07309", "code_cant": "08", "code_arr": "3", "code_dept": "07", "nom_dept": "ARDECHE" }, "geometry": { "type": "Point", "coordinates": [ 4.587865515873902, 45.141642474654574 ] } },
{ "type": "Feature", "properties": { "nom_com": "SAINT-JULIEN-LABROUSSE", "insee_com": "07256", "code_cant": "06", "code_arr": "3", "code_dept": "07", "nom_dept": "ARDECHE" }, "geometry": { "type": "Point", "coordinates": [ 4.515646871836068, 44.907794848342689 ] } },
{ "type": "Feature", "properties": { "nom_com": "CHAUZON", "insee_com": "07061", "code_cant": "15", "code_arr": "1", "code_dept": "07", "nom_dept": "ARDECHE" }, "geometry": { "type": "Point", "coordinates": [ 4.34490008120637, 44.491153779115777 ] } },
{ "type": "Feature", "properties": { "nom_com": "CHALENCON", "insee_com": "07048", "code_cant": "06", "code_arr": "3", "code_dept": "07", "nom_dept": "ARDECHE" }, "geometry": { "type": "Point", "coordinates": [ 4.557212438667293, 44.880403785390655 ] } },
{ "type": "Feature", "properties": { "nom_com": "ROCHEMAURE", "insee_com": "07191", "code_cant": "09", "code_arr": "2", "code_dept": "07", "nom_dept": "ARDECHE" }, "geometry": { "type": "Point", "coordinates": [ 4.692077910942443, 44.58915993312494 ] } },
{ "type": "Feature", "properties": { "nom_com": "AILHON", "insee_com": "07002", "code_cant": "04", "code_arr": "1", "code_dept": "07", "nom_dept": "ARDECHE" }, "geometry": { "type": "Point", "coordinates": [ 4.332604834115885, 44.597713658277293 ] } },
{ "type": "Feature", "properties": { "nom_com": "COUCOURON", "insee_com": "07071", "code_cant": "13", "code_arr": "1", "code_dept": "07", "nom_dept": "ARDECHE" }, "geometry": { "type": "Point", "coordinates": [ 3.961701189313683, 44.794993564137897 ] } },
{ "type": "Feature", "properties": { "nom_com": "SAINT-LAURENT-SOUS-COIRON", "insee_com": "07263", "code_cant": "12", "code_arr": "1", "code_dept": "07", "nom_dept": "ARDECHE" }, "geometry": { "type": "Point", "coordinates": [ 4.484936160791557, 44.664487963045197 ] } },
{ "type": "Feature", "properties": { "nom_com": "CHAMBONAS", "insee_com": "07050", "code_cant": "16", "code_arr": "1", "code_dept": "07", "nom_dept": "ARDECHE" }, "geometry": { "type": "Point", "coordinates": [ 4.129699967839414, 44.426679170512102 ] } },
{ "type": "Feature", "properties": { "nom_com": "MALBOSC", "insee_com": "07148", "code_cant": "16", "code_arr": "1", "code_dept": "07", "nom_dept": "ARDECHE" }, "geometry": { "type": "Point", "coordinates": [ 4.072484396874087, 44.349133759450396 ] } },
{ "type": "Feature", "properties": { "nom_com": "AJOUX", "insee_com": "07004", "code_cant": "10", "code_arr": "2", "code_dept": "07", "nom_dept": "ARDECHE" }, "geometry": { "type": "Point", "coordinates": [ 4.485561524839031, 44.754729998439295 ] } },
{ "type": "Feature", "properties": { "nom_com": "SAINT-FORTUNAT-SUR-EYRIEUX", "insee_com": "07237", "code_cant": "17", "code_arr": "2", "code_dept": "07", "nom_dept": "ARDECHE" }, "geometry": { "type": "Point", "coordinates": [ 4.689799650454836, 44.835388295030597 ] } },
{ "type": "Feature", "properties": { "nom_com": "SAINT-VICTOR", "insee_com": "07301", "code_cant": "08", "code_arr": "3", "code_dept": "07", "nom_dept": "ARDECHE" }, "geometry": { "type": "Point", "coordinates": [ 4.687903131092781, 45.099426620255343 ] } },
{ "type": "Feature", "properties": { "nom_com": "VALLON-PONT-D'ARC", "insee_com": "07330", "code_cant": "15", "code_arr": "1", "code_dept": "07", "nom_dept": "ARDECHE" }, "geometry": { "type": "Point", "coordinates": [ 4.405549241370128, 44.400307122352899 ] } },
{ "type": "Feature", "properties": { "nom_com": "DESAIGNES", "insee_com": "07079", "code_cant": "08", "code_arr": "3", "code_dept": "07", "nom_dept": "ARDECHE" }, "geometry": { "type": "Point", "coordinates": [ 4.500909824878868, 44.992325401709145 ] } },
{ "type": "Feature", "properties": { "nom_com": "ACCONS", "insee_com": "07001", "code_cant": "06", "code_arr": "3", "code_dept": "07", "nom_dept": "ARDECHE" }, "geometry": { "type": "Point", "coordinates": [ 4.391947732686414, 44.888468576874217 ] } },
{ "type": "Feature", "properties": { "nom_com": "ROIFFIEUX", "insee_com": "07197", "code_cant": "02", "code_arr": "3", "code_dept": "07", "nom_dept": "ARDECHE" }, "geometry": { "type": "Point", "coordinates": [ 4.649327019444219, 45.219214192845669 ] } },
{ "type": "Feature", "properties": { "nom_com": "SAINT-JEURE-D'ANDAURE", "insee_com": "07249", "code_cant": "06", "code_arr": "3", "code_dept": "07", "nom_dept": "ARDECHE" }, "geometry": { "type": "Point", "coordinates": [ 4.463686300055761, 45.047926919858568 ] } },
{ "type": "Feature", "properties": { "nom_com": "SAINT-CIERGE-LA-SERRE", "insee_com": "07221", "code_cant": "17", "code_arr": "2", "code_dept": "07", "nom_dept": "ARDECHE" }, "geometry": { "type": "Point", "coordinates": [ 4.680035286870011, 44.793313620064495 ] } },
{ "type": "Feature", "properties": { "nom_com": "SAINT-ANDEOL-DE-FOURCHADES", "insee_com": "07209", "code_cant": "06", "code_arr": "3", "code_dept": "07", "nom_dept": "ARDECHE" }, "geometry": { "type": "Point", "coordinates": [ 4.287158769427704, 44.844409941473145 ] } },
{ "type": "Feature", "properties": { "nom_com": "VAGNAS", "insee_com": "07328", "code_cant": "15", "code_arr": "1", "code_dept": "07", "nom_dept": "ARDECHE" }, "geometry": { "type": "Point", "coordinates": [ 4.343720977911311, 44.359513425356525 ] } },
{ "type": "Feature", "properties": { "nom_com": "LABASTIDE-DE-VIRAC", "insee_com": "07113", "code_cant": "15", "code_arr": "1", "code_dept": "07", "nom_dept": "ARDECHE" }, "geometry": { "type": "Point", "coordinates": [ 4.419539570901508, 44.353818977543476 ] } },
{ "type": "Feature", "properties": { "nom_com": "SAINT-PRIX", "insee_com": "07290", "code_cant": "08", "code_arr": "3", "code_dept": "07", "nom_dept": "ARDECHE" }, "geometry": { "type": "Point", "coordinates": [ 4.501097502887484, 44.947034733624925 ] } },
{ "type": "Feature", "properties": { "nom_com": "RIBES", "insee_com": "07189", "code_cant": "16", "code_arr": "1", "code_dept": "07", "nom_dept": "ARDECHE" }, "geometry": { "type": "Point", "coordinates": [ 4.197733509047082, 44.503263772462383 ] } },
{ "type": "Feature", "properties": { "nom_com": "SAINT-PIERRE-SUR-DOUX", "insee_com": "07285", "code_cant": "08", "code_arr": "3", "code_dept": "07", "nom_dept": "ARDECHE" }, "geometry": { "type": "Point", "coordinates": [ 4.485062364218794, 45.128444145019984 ] } },
{ "type": "Feature", "properties": { "nom_com": "SAINT-JEURE-D'AY", "insee_com": "07250", "code_cant": "08", "code_arr": "3", "code_dept": "07", "nom_dept": "ARDECHE" }, "geometry": { "type": "Point", "coordinates": [ 4.710302766297157, 45.144827095808047 ] } },
{ "type": "Feature", "properties": { "nom_com": "SAINT-ANDEOL-DE-VALS", "insee_com": "07210", "code_cant": "03", "code_arr": "1", "code_dept": "07", "nom_dept": "ARDECHE" }, "geometry": { "type": "Point", "coordinates": [ 4.400646021970423, 44.692575690022679 ] } },
{ "type": "Feature", "properties": { "nom_com": "SAINT-VINCENT-DE-DURFORT", "insee_com": "07303", "code_cant": "06", "code_arr": "2", "code_dept": "07", "nom_dept": "ARDECHE" }, "geometry": { "type": "Point", "coordinates": [ 4.638284072965858, 44.791839388009684 ] } },
{ "type": "Feature", "properties": { "nom_com": "VALS-LES-BAINS", "insee_com": "07331", "code_cant": "03", "code_arr": "1", "code_dept": "07", "nom_dept": "ARDECHE" }, "geometry": { "type": "Point", "coordinates": [ 4.342946027353701, 44.667076777060871 ] } },
{ "type": "Feature", "properties": { "nom_com": "SAINT-JEAN-ROURE", "insee_com": "07248", "code_cant": "06", "code_arr": "3", "code_dept": "07", "nom_dept": "ARDECHE" }, "geometry": { "type": "Point", "coordinates": [ 4.419252276939607, 44.954949032796144 ] } },
{ "type": "Feature", "properties": { "nom_com": "ROMPON", "insee_com": "07198", "code_cant": "09", "code_arr": "2", "code_dept": "07", "nom_dept": "ARDECHE" }, "geometry": { "type": "Point", "coordinates": [ 4.73003098522187, 44.77890015464753 ] } },
{ "type": "Feature", "properties": { "nom_com": "GENESTELLE", "insee_com": "07093", "code_cant": "03", "code_arr": "1", "code_dept": "07", "nom_dept": "ARDECHE" }, "geometry": { "type": "Point", "coordinates": [ 4.385313876586722, 44.737114632432906 ] } },
{ "type": "Feature", "properties": { "nom_com": "NOZIERES", "insee_com": "07166", "code_cant": "08", "code_arr": "3", "code_dept": "07", "nom_dept": "ARDECHE" }, "geometry": { "type": "Point", "coordinates": [ 4.545913038930676, 45.03459282406034 ] } },
{ "type": "Feature", "properties": { "nom_com": "ROCHECOLOMBE", "insee_com": "07190", "code_cant": "15", "code_arr": "1", "code_dept": "07", "nom_dept": "ARDECHE" }, "geometry": { "type": "Point", "coordinates": [ 4.448623321306913, 44.518792686458362 ] } },
{ "type": "Feature", "properties": { "nom_com": "FABRAS", "insee_com": "07087", "code_cant": "13", "code_arr": "1", "code_dept": "07", "nom_dept": "ARDECHE" }, "geometry": { "type": "Point", "coordinates": [ 4.280247768825984, 44.648030544956782 ] } },
{ "type": "Feature", "properties": { "nom_com": "SAGNES-ET-GOUDOULET", "insee_com": "07203", "code_cant": "13", "code_arr": "1", "code_dept": "07", "nom_dept": "ARDECHE" }, "geometry": { "type": "Point", "coordinates": [ 4.215938456251415, 44.801590329039065 ] } },
{ "type": "Feature", "properties": { "nom_com": "COLOMBIER-LE-VIEUX", "insee_com": "07069", "code_cant": "08", "code_arr": "3", "code_dept": "07", "nom_dept": "ARDECHE" }, "geometry": { "type": "Point", "coordinates": [ 4.69974703272333, 45.059223993970349 ] } },
{ "type": "Feature", "properties": { "nom_com": "PRANLES", "insee_com": "07184", "code_cant": "10", "code_arr": "2", "code_dept": "07", "nom_dept": "ARDECHE" }, "geometry": { "type": "Point", "coordinates": [ 4.574536138968944, 44.780835906944468 ] } },
{ "type": "Feature", "properties": { "nom_com": "BEAUVENE", "insee_com": "07030", "code_cant": "06", "code_arr": "2", "code_dept": "07", "nom_dept": "ARDECHE" }, "geometry": { "type": "Point", "coordinates": [ 4.51171832312849, 44.869000026099378 ] } },
{ "type": "Feature", "properties": { "nom_com": "SAINT-PIERRE-SAINT-JEAN", "insee_com": "07284", "code_cant": "16", "code_arr": "1", "code_dept": "07", "nom_dept": "ARDECHE" }, "geometry": { "type": "Point", "coordinates": [ 4.102468431171526, 44.482391390692442 ] } },
{ "type": "Feature", "properties": { "nom_com": "SAINT-MONTAN", "insee_com": "07279", "code_cant": "05", "code_arr": "2", "code_dept": "07", "nom_dept": "ARDECHE" }, "geometry": { "type": "Point", "coordinates": [ 4.632173837853702, 44.433736486677518 ] } },
{ "type": "Feature", "properties": { "nom_com": "SAINT-AGREVE", "insee_com": "07204", "code_cant": "06", "code_arr": "3", "code_dept": "07", "nom_dept": "ARDECHE" }, "geometry": { "type": "Point", "coordinates": [ 4.413105149679812, 45.005328521802987 ] } },
{ "type": "Feature", "properties": { "nom_com": "SAINT-ETIENNE-DE-LUGDARES", "insee_com": "07232", "code_cant": "13", "code_arr": "1", "code_dept": "07", "nom_dept": "ARDECHE" }, "geometry": { "type": "Point", "coordinates": [ 3.973197561991946, 44.647458692693185 ] } },
{ "type": "Feature", "properties": { "nom_com": "SAINT-ANDRE-DE-CRUZIERES", "insee_com": "07211", "code_cant": "16", "code_arr": "1", "code_dept": "07", "nom_dept": "ARDECHE" }, "geometry": { "type": "Point", "coordinates": [ 4.212488541762117, 44.315627071121867 ] } },
{ "type": "Feature", "properties": { "nom_com": "MAYRES", "insee_com": "07153", "code_cant": "13", "code_arr": "1", "code_dept": "07", "nom_dept": "ARDECHE" }, "geometry": { "type": "Point", "coordinates": [ 4.101462709943276, 44.664753851103086 ] } },
{ "type": "Feature", "properties": { "nom_com": "LABASTIDE-SUR-BESORGUES", "insee_com": "07112", "code_cant": "03", "code_arr": "1", "code_dept": "07", "nom_dept": "ARDECHE" }, "geometry": { "type": "Point", "coordinates": [ 4.298103182824442, 44.749582168414612 ] } },
{ "type": "Feature", "properties": { "nom_com": "LENTILLERES", "insee_com": "07141", "code_cant": "04", "code_arr": "1", "code_dept": "07", "nom_dept": "ARDECHE" }, "geometry": { "type": "Point", "coordinates": [ 4.298223006373744, 44.609771744575546 ] } },
{ "type": "Feature", "properties": { "nom_com": "LEMPS", "insee_com": "07140", "code_cant": "14", "code_arr": "3", "code_dept": "07", "nom_dept": "ARDECHE" }, "geometry": { "type": "Point", "coordinates": [ 4.779078473890252, 45.097153218435047 ] } },
{ "type": "Feature", "properties": { "nom_com": "LAMASTRE", "insee_com": "07129", "code_cant": "08", "code_arr": "3", "code_dept": "07", "nom_dept": "ARDECHE" }, "geometry": { "type": "Point", "coordinates": [ 4.590521666008462, 44.982458805982866 ] } },
{ "type": "Feature", "properties": { "nom_com": "LE CRESTET", "insee_com": "07073", "code_cant": "08", "code_arr": "3", "code_dept": "07", "nom_dept": "ARDECHE" }, "geometry": { "type": "Point", "coordinates": [ 4.63886914626429, 45.009629643982699 ] } },
{ "type": "Feature", "properties": { "nom_com": "SAINT-ROMAIN-D'AY", "insee_com": "07292", "code_cant": "08", "code_arr": "3", "code_dept": "07", "nom_dept": "ARDECHE" }, "geometry": { "type": "Point", "coordinates": [ 4.68095537747815, 45.165526081425156 ] } },
{ "type": "Feature", "properties": { "nom_com": "BOFFRES", "insee_com": "07035", "code_cant": "17", "code_arr": "3", "code_dept": "07", "nom_dept": "ARDECHE" }, "geometry": { "type": "Point", "coordinates": [ 4.695621986629103, 44.919790259852192 ] } },
{ "type": "Feature", "properties": { "nom_com": "ANNONAY", "insee_com": "07010", "code_cant": "98", "code_arr": "3", "code_dept": "07", "nom_dept": "ARDECHE" }, "geometry": { "type": "Point", "coordinates": [ 4.651151467948213, 45.246297465373083 ] } },
{ "type": "Feature", "properties": { "nom_com": "SAINT-JEAN-LE-CENTENIER", "insee_com": "07247", "code_cant": "12", "code_arr": "1", "code_dept": "07", "nom_dept": "ARDECHE" }, "geometry": { "type": "Point", "coordinates": [ 4.537775903594349, 44.587328312282629 ] } },
{ "type": "Feature", "properties": { "nom_com": "SAINT-JULIEN-DU-GUA", "insee_com": "07253", "code_cant": "06", "code_arr": "2", "code_dept": "07", "nom_dept": "ARDECHE" }, "geometry": { "type": "Point", "coordinates": [ 4.440292526011438, 44.770997344898824 ] } },
{ "type": "Feature", "properties": { "nom_com": "BARNAS", "insee_com": "07025", "code_cant": "13", "code_arr": "1", "code_dept": "07", "nom_dept": "ARDECHE" }, "geometry": { "type": "Point", "coordinates": [ 4.15930293691501, 44.668855774812734 ] } },
{ "type": "Feature", "properties": { "nom_com": "PRADES", "insee_com": "07182", "code_cant": "13", "code_arr": "1", "code_dept": "07", "nom_dept": "ARDECHE" }, "geometry": { "type": "Point", "coordinates": [ 4.310024335714016, 44.633503327945292 ] } },
{ "type": "Feature", "properties": { "nom_com": "VERNOUX-EN-VIVARAIS", "insee_com": "07338", "code_cant": "17", "code_arr": "3", "code_dept": "07", "nom_dept": "ARDECHE" }, "geometry": { "type": "Point", "coordinates": [ 4.644015904230024, 44.905767045280953 ] } },
{ "type": "Feature", "properties": { "nom_com": "TOURNON-SUR-RHONE", "insee_com": "07324", "code_cant": "14", "code_arr": "3", "code_dept": "07", "nom_dept": "ARDECHE" }, "geometry": { "type": "Point", "coordinates": [ 4.815155876369266, 45.053604801669671 ] } },
{ "type": "Feature", "properties": { "nom_com": "SAINT-PIERREVILLE", "insee_com": "07286", "code_cant": "06", "code_arr": "2", "code_dept": "07", "nom_dept": "ARDECHE" }, "geometry": { "type": "Point", "coordinates": [ 4.481389275502365, 44.818860693463449 ] } },
{ "type": "Feature", "properties": { "nom_com": "PEYRAUD", "insee_com": "07174", "code_cant": "11", "code_arr": "3", "code_dept": "07", "nom_dept": "ARDECHE" }, "geometry": { "type": "Point", "coordinates": [ 4.783352695597531, 45.296608749344102 ] } },
{ "type": "Feature", "properties": { "nom_com": "BERRIAS-ET-CASTELJAU", "insee_com": "07031", "code_cant": "16", "code_arr": "1", "code_dept": "07", "nom_dept": "ARDECHE" }, "geometry": { "type": "Point", "coordinates": [ 4.207581366785935, 44.382549419614953 ] } },
{ "type": "Feature", "properties": { "nom_com": "ROCLES", "insee_com": "07196", "code_cant": "16", "code_arr": "1", "code_dept": "07", "nom_dept": "ARDECHE" }, "geometry": { "type": "Point", "coordinates": [ 4.207889863889885, 44.568316046806096 ] } },
{ "type": "Feature", "properties": { "nom_com": "SAINT-BARTHELEMY-LE-PLAIN", "insee_com": "07217", "code_cant": "14", "code_arr": "3", "code_dept": "07", "nom_dept": "ARDECHE" }, "geometry": { "type": "Point", "coordinates": [ 4.743598232805804, 45.045247179316199 ] } },
{ "type": "Feature", "properties": { "nom_com": "SAINT-PONS", "insee_com": "07287", "code_cant": "12", "code_arr": "1", "code_dept": "07", "nom_dept": "ARDECHE" }, "geometry": { "type": "Point", "coordinates": [ 4.572237561102169, 44.598913881652891 ] } },
{ "type": "Feature", "properties": { "nom_com": "COUX", "insee_com": "07072", "code_cant": "10", "code_arr": "2", "code_dept": "07", "nom_dept": "ARDECHE" }, "geometry": { "type": "Point", "coordinates": [ 4.622191951984648, 44.742986857699641 ] } },
{ "type": "Feature", "properties": { "nom_com": "CROS-DE-GEORAND", "insee_com": "07075", "code_cant": "13", "code_arr": "1", "code_dept": "07", "nom_dept": "ARDECHE" }, "geometry": { "type": "Point", "coordinates": [ 4.127590062570873, 44.799414170334252 ] } },
{ "type": "Feature", "properties": { "nom_com": "VILLENEUVE-DE-BERG", "insee_com": "07341", "code_cant": "12", "code_arr": "1", "code_dept": "07", "nom_dept": "ARDECHE" }, "geometry": { "type": "Point", "coordinates": [ 4.503258022649801, 44.548919768898116 ] } },
{ "type": "Feature", "properties": { "nom_com": "GLUIRAS", "insee_com": "07096", "code_cant": "06", "code_arr": "2", "code_dept": "07", "nom_dept": "ARDECHE" }, "geometry": { "type": "Point", "coordinates": [ 4.525718503155182, 44.845688038027589 ] } },
{ "type": "Feature", "properties": { "nom_com": "SAINT-BASILE", "insee_com": "07218", "code_cant": "08", "code_arr": "3", "code_dept": "07", "nom_dept": "ARDECHE" }, "geometry": { "type": "Point", "coordinates": [ 4.561183775876738, 44.949245463667644 ] } },
{ "type": "Feature", "properties": { "nom_com": "LABLACHERE", "insee_com": "07117", "code_cant": "16", "code_arr": "1", "code_dept": "07", "nom_dept": "ARDECHE" }, "geometry": { "type": "Point", "coordinates": [ 4.213890442460887, 44.460464819533421 ] } },
{ "type": "Feature", "properties": { "nom_com": "MARCOLS-LES-EAUX", "insee_com": "07149", "code_cant": "06", "code_arr": "2", "code_dept": "07", "nom_dept": "ARDECHE" }, "geometry": { "type": "Point", "coordinates": [ 4.389046146517514, 44.806222205069858 ] } },
{ "type": "Feature", "properties": { "nom_com": "SAVAS", "insee_com": "07310", "code_cant": "01", "code_arr": "3", "code_dept": "07", "nom_dept": "ARDECHE" }, "geometry": { "type": "Point", "coordinates": [ 4.672407661587748, 45.301338860554068 ] } },
{ "type": "Feature", "properties": { "nom_com": "SAINT-JULIEN-VOCANCE", "insee_com": "07258", "code_cant": "02", "code_arr": "3", "code_dept": "07", "nom_dept": "ARDECHE" }, "geometry": { "type": "Point", "coordinates": [ 4.48753851308973, 45.166859759035532 ] } },
{ "type": "Feature", "properties": { "nom_com": "EMPURANY", "insee_com": "07085", "code_cant": "08", "code_arr": "3", "code_dept": "07", "nom_dept": "ARDECHE" }, "geometry": { "type": "Point", "coordinates": [ 4.596893808031946, 45.02599874828833 ] } },
{ "type": "Feature", "properties": { "nom_com": "ECLASSAN", "insee_com": "07084", "code_cant": "11", "code_arr": "3", "code_dept": "07", "nom_dept": "ARDECHE" }, "geometry": { "type": "Point", "coordinates": [ 4.748357401993682, 45.160612132503957 ] } },
{ "type": "Feature", "properties": { "nom_com": "SAINT-MARCEL-D'ARDECHE", "insee_com": "07264", "code_cant": "05", "code_arr": "2", "code_dept": "07", "nom_dept": "ARDECHE" }, "geometry": { "type": "Point", "coordinates": [ 4.60602238851834, 44.329743112126664 ] } },
{ "type": "Feature", "properties": { "nom_com": "PAYZAC", "insee_com": "07171", "code_cant": "16", "code_arr": "1", "code_dept": "07", "nom_dept": "ARDECHE" }, "geometry": { "type": "Point", "coordinates": [ 4.149118525195156, 44.454843947522427 ] } },
{ "type": "Feature", "properties": { "nom_com": "SAINT-ALBAN-D'AY", "insee_com": "07205", "code_cant": "08", "code_arr": "3", "code_dept": "07", "nom_dept": "ARDECHE" }, "geometry": { "type": "Point", "coordinates": [ 4.630732049583639, 45.186193382827057 ] } },
{ "type": "Feature", "properties": { "nom_com": "SAINT-MARTIN-SUR-LAVEZON", "insee_com": "07270", "code_cant": "09", "code_arr": "2", "code_dept": "07", "nom_dept": "ARDECHE" }, "geometry": { "type": "Point", "coordinates": [ 4.65662280811036, 44.634827032200832 ] } },
{ "type": "Feature", "properties": { "nom_com": "SAINTE-MARGUERITE-LAFIGERE", "insee_com": "07266", "code_cant": "16", "code_arr": "1", "code_dept": "07", "nom_dept": "ARDECHE" }, "geometry": { "type": "Point", "coordinates": [ 3.997648643656748, 44.485099520212778 ] } },
{ "type": "Feature", "properties": { "nom_com": "BOREE", "insee_com": "07037", "code_cant": "06", "code_arr": "3", "code_dept": "07", "nom_dept": "ARDECHE" }, "geometry": { "type": "Point", "coordinates": [ 4.225716451944431, 44.894356085382448 ] } },
{ "type": "Feature", "properties": { "nom_com": "SAINT-MAURICE-D'IBIE", "insee_com": "07273", "code_cant": "12", "code_arr": "1", "code_dept": "07", "nom_dept": "ARDECHE" }, "geometry": { "type": "Point", "coordinates": [ 4.482493618437255, 44.483631980381439 ] } },
{ "type": "Feature", "properties": { "nom_com": "NONIERES", "insee_com": "07165", "code_cant": "06", "code_arr": "3", "code_dept": "07", "nom_dept": "ARDECHE" }, "geometry": { "type": "Point", "coordinates": [ 4.47725776007039, 44.927829103087674 ] } },
{ "type": "Feature", "properties": { "nom_com": "SAINT-ANDEOL-DE-BERG", "insee_com": "07208", "code_cant": "12", "code_arr": "1", "code_dept": "07", "nom_dept": "ARDECHE" }, "geometry": { "type": "Point", "coordinates": [ 4.536539901471634, 44.529284619229628 ] } },
{ "type": "Feature", "properties": { "nom_com": "ASTET", "insee_com": "07018", "code_cant": "13", "code_arr": "1", "code_dept": "07", "nom_dept": "ARDECHE" }, "geometry": { "type": "Point", "coordinates": [ 4.02602385911464, 44.684900795700024 ] } },
{ "type": "Feature", "properties": { "nom_com": "SAINT-JULIEN-DU-SERRE", "insee_com": "07254", "code_cant": "03", "code_arr": "1", "code_dept": "07", "nom_dept": "ARDECHE" }, "geometry": { "type": "Point", "coordinates": [ 4.40396583169095, 44.659978681500725 ] } },
{ "type": "Feature", "properties": { "nom_com": "MEZILHAC", "insee_com": "07158", "code_cant": "03", "code_arr": "1", "code_dept": "07", "nom_dept": "ARDECHE" }, "geometry": { "type": "Point", "coordinates": [ 4.341521576519193, 44.806654181403403 ] } },
{ "type": "Feature", "properties": { "nom_com": "BOULIEU-LES-ANNONAY", "insee_com": "07041", "code_cant": "01", "code_arr": "3", "code_dept": "07", "nom_dept": "ARDECHE" }, "geometry": { "type": "Point", "coordinates": [ 4.646590934611468, 45.267421861955533 ] } },
{ "type": "Feature", "properties": { "nom_com": "SAINT-MARTIAL", "insee_com": "07267", "code_cant": "06", "code_arr": "3", "code_dept": "07", "nom_dept": "ARDECHE" }, "geometry": { "type": "Point", "coordinates": [ 4.25167530438959, 44.862767759661665 ] } },
{ "type": "Feature", "properties": { "nom_com": "LES VANS", "insee_com": "07334", "code_cant": "16", "code_arr": "1", "code_dept": "07", "nom_dept": "ARDECHE" }, "geometry": { "type": "Point", "coordinates": [ 4.114439493755042, 44.392152511251737 ] } },
{ "type": "Feature", "properties": { "nom_com": "SAINT-ALBAN-EN-MONTAGNE", "insee_com": "07206", "code_cant": "13", "code_arr": "1", "code_dept": "07", "nom_dept": "ARDECHE" }, "geometry": { "type": "Point", "coordinates": [ 3.917990733968938, 44.710380168978062 ] } },
{ "type": "Feature", "properties": { "nom_com": "GRAVIERES", "insee_com": "07100", "code_cant": "16", "code_arr": "1", "code_dept": "07", "nom_dept": "ARDECHE" }, "geometry": { "type": "Point", "coordinates": [ 4.071963440143831, 44.421490225463671 ] } },
{ "type": "Feature", "properties": { "nom_com": "LAVILLATTE", "insee_com": "07137", "code_cant": "13", "code_arr": "1", "code_dept": "07", "nom_dept": "ARDECHE" }, "geometry": { "type": "Point", "coordinates": [ 3.951663417833708, 44.741628072947641 ] } },
{ "type": "Feature", "properties": { "nom_com": "VALVIGNERES", "insee_com": "07332", "code_cant": "12", "code_arr": "2", "code_dept": "07", "nom_dept": "ARDECHE" }, "geometry": { "type": "Point", "coordinates": [ 4.561446210145403, 44.500216148369475 ] } },
{ "type": "Feature", "properties": { "nom_com": "SABLIERES", "insee_com": "07202", "code_cant": "16", "code_arr": "1", "code_dept": "07", "nom_dept": "ARDECHE" }, "geometry": { "type": "Point", "coordinates": [ 4.063499964201912, 44.543333261957599 ] } },
{ "type": "Feature", "properties": { "nom_com": "PLATS", "insee_com": "07177", "code_cant": "14", "code_arr": "3", "code_dept": "07", "nom_dept": "ARDECHE" }, "geometry": { "type": "Point", "coordinates": [ 4.780782280024153, 45.015927612671383 ] } },
{ "type": "Feature", "properties": { "nom_com": "DUNIERE-SUR-EYRIEUX", "insee_com": "07083", "code_cant": "06", "code_arr": "2", "code_dept": "07", "nom_dept": "ARDECHE" }, "geometry": { "type": "Point", "coordinates": [ 4.651559845883573, 44.834034333089384 ] } },
{ "type": "Feature", "properties": { "nom_com": "LARNAS", "insee_com": "07133", "code_cant": "05", "code_arr": "2", "code_dept": "07", "nom_dept": "ARDECHE" }, "geometry": { "type": "Point", "coordinates": [ 4.596014470042558, 44.453507341862391 ] } },
{ "type": "Feature", "properties": { "nom_com": "PREAUX", "insee_com": "07185", "code_cant": "08", "code_arr": "3", "code_dept": "07", "nom_dept": "ARDECHE" }, "geometry": { "type": "Point", "coordinates": [ 4.653358683051636, 45.13601359349753 ] } },
{ "type": "Feature", "properties": { "nom_com": "SAINT-PERAY", "insee_com": "07281", "code_cant": "07", "code_arr": "3", "code_dept": "07", "nom_dept": "ARDECHE" }, "geometry": { "type": "Point", "coordinates": [ 4.824090021483925, 44.9407913512579 ] } },
{ "type": "Feature", "properties": { "nom_com": "SALAVAS", "insee_com": "07304", "code_cant": "15", "code_arr": "1", "code_dept": "07", "nom_dept": "ARDECHE" }, "geometry": { "type": "Point", "coordinates": [ 4.36673986591856, 44.388405799242612 ] } },
{ "type": "Feature", "properties": { "nom_com": "SAINT-LAURENT-LES-BAINS", "insee_com": "07262", "code_cant": "13", "code_arr": "1", "code_dept": "07", "nom_dept": "ARDECHE" }, "geometry": { "type": "Point", "coordinates": [ 3.958657818907583, 44.59740448063949 ] } },
{ "type": "Feature", "properties": { "nom_com": "SILHAC", "insee_com": "07314", "code_cant": "17", "code_arr": "3", "code_dept": "07", "nom_dept": "ARDECHE" }, "geometry": { "type": "Point", "coordinates": [ 4.613499701907963, 44.874226561348479 ] } },
{ "type": "Feature", "properties": { "nom_com": "MIRABEL", "insee_com": "07159", "code_cant": "12", "code_arr": "1", "code_dept": "07", "nom_dept": "ARDECHE" }, "geometry": { "type": "Point", "coordinates": [ 4.496492686834571, 44.596228214955751 ] } },
{ "type": "Feature", "properties": { "nom_com": "VOCANCE", "insee_com": "07347", "code_cant": "02", "code_arr": "3", "code_dept": "07", "nom_dept": "ARDECHE" }, "geometry": { "type": "Point", "coordinates": [ 4.563058946299368, 45.194463325965209 ] } },
{ "type": "Feature", "properties": { "nom_com": "SAINT-JUST-D'ARDECHE", "insee_com": "07259", "code_cant": "05", "code_arr": "2", "code_dept": "07", "nom_dept": "ARDECHE" }, "geometry": { "type": "Point", "coordinates": [ 4.625345679677527, 44.293639015093838 ] } },
{ "type": "Feature", "properties": { "nom_com": "MARIAC", "insee_com": "07150", "code_cant": "06", "code_arr": "3", "code_dept": "07", "nom_dept": "ARDECHE" }, "geometry": { "type": "Point", "coordinates": [ 4.353093192952637, 44.885747312188009 ] } },
{ "type": "Feature", "properties": { "nom_com": "MEYSSE", "insee_com": "07157", "code_cant": "09", "code_arr": "2", "code_dept": "07", "nom_dept": "ARDECHE" }, "geometry": { "type": "Point", "coordinates": [ 4.715814552452514, 44.619338728997974 ] } },
{ "type": "Feature", "properties": { "nom_com": "SAINT-CIRGUES-EN-MONTAGNE", "insee_com": "07224", "code_cant": "13", "code_arr": "1", "code_dept": "07", "nom_dept": "ARDECHE" }, "geometry": { "type": "Point", "coordinates": [ 4.088315464324844, 44.767938820521287 ] } },
{ "type": "Feature", "properties": { "nom_com": "GRAS", "insee_com": "07099", "code_cant": "05", "code_arr": "2", "code_dept": "07", "nom_dept": "ARDECHE" }, "geometry": { "type": "Point", "coordinates": [ 4.533929518795018, 44.445717923404281 ] } },
{ "type": "Feature", "properties": { "nom_com": "VALGORGE", "insee_com": "07329", "code_cant": "16", "code_arr": "1", "code_dept": "07", "nom_dept": "ARDECHE" }, "geometry": { "type": "Point", "coordinates": [ 4.11126171578355, 44.59483114993597 ] } },
{ "type": "Feature", "properties": { "nom_com": "SAINT-JULIEN-BOUTIERES", "insee_com": "07252", "code_cant": "06", "code_arr": "3", "code_dept": "07", "nom_dept": "ARDECHE" }, "geometry": { "type": "Point", "coordinates": [ 4.347282309772221, 44.968873852819577 ] } },
{ "type": "Feature", "properties": { "nom_com": "SAINT-ETIENNE-DE-BOULOGNE", "insee_com": "07230", "code_cant": "04", "code_arr": "1", "code_dept": "07", "nom_dept": "ARDECHE" }, "geometry": { "type": "Point", "coordinates": [ 4.473475792519161, 44.700161796219462 ] } },
{ "type": "Feature", "properties": { "nom_com": "THUEYTS", "insee_com": "07322", "code_cant": "13", "code_arr": "1", "code_dept": "07", "nom_dept": "ARDECHE" }, "geometry": { "type": "Point", "coordinates": [ 4.211862265666064, 44.674973718739921 ] } },
{ "type": "Feature", "properties": { "nom_com": "PAILHARES", "insee_com": "07170", "code_cant": "08", "code_arr": "3", "code_dept": "07", "nom_dept": "ARDECHE" }, "geometry": { "type": "Point", "coordinates": [ 4.558417051082336, 45.080469021375436 ] } },
{ "type": "Feature", "properties": { "nom_com": "MONTPEZAT-SOUS-BAUZON", "insee_com": "07161", "code_cant": "13", "code_arr": "1", "code_dept": "07", "nom_dept": "ARDECHE" }, "geometry": { "type": "Point", "coordinates": [ 4.197766804244796, 44.716484156551864 ] } },
{ "type": "Feature", "properties": { "nom_com": "GOURDON", "insee_com": "07098", "code_cant": "10", "code_arr": "2", "code_dept": "07", "nom_dept": "ARDECHE" }, "geometry": { "type": "Point", "coordinates": [ 4.454902232128329, 44.729200692607421 ] } },
{ "type": "Feature", "properties": { "nom_com": "LOUBARESSE", "insee_com": "07144", "code_cant": "16", "code_arr": "1", "code_dept": "07", "nom_dept": "ARDECHE" }, "geometry": { "type": "Point", "coordinates": [ 4.05057730125746, 44.591002260992177 ] } },
{ "type": "Feature", "properties": { "nom_com": "ROCHEPAULE", "insee_com": "07192", "code_cant": "06", "code_arr": "3", "code_dept": "07", "nom_dept": "ARDECHE" }, "geometry": { "type": "Point", "coordinates": [ 4.458815482919812, 45.085494290332029 ] } },
{ "type": "Feature", "properties": { "nom_com": "LABEAUME", "insee_com": "07115", "code_cant": "15", "code_arr": "1", "code_dept": "07", "nom_dept": "ARDECHE" }, "geometry": { "type": "Point", "coordinates": [ 4.310322103425029, 44.468046102380598 ] } },
{ "type": "Feature", "properties": { "nom_com": "PEAUGRES", "insee_com": "07172", "code_cant": "11", "code_arr": "3", "code_dept": "07", "nom_dept": "ARDECHE" }, "geometry": { "type": "Point", "coordinates": [ 4.727945883616749, 45.285503297260092 ] } },
{ "type": "Feature", "properties": { "nom_com": "LE CHEYLARD", "insee_com": "07064", "code_cant": "06", "code_arr": "3", "code_dept": "07", "nom_dept": "ARDECHE" }, "geometry": { "type": "Point", "coordinates": [ 4.420936344009, 44.907621246368556 ] } },
{ "type": "Feature", "properties": { "nom_com": "VIVIERS", "insee_com": "07346", "code_cant": "05", "code_arr": "2", "code_dept": "07", "nom_dept": "ARDECHE" }, "geometry": { "type": "Point", "coordinates": [ 4.670026861910224, 44.482750624076083 ] } },
{ "type": "Feature", "properties": { "nom_com": "SAINT-MARCEL-LES-ANNONAY", "insee_com": "07265", "code_cant": "01", "code_arr": "3", "code_dept": "07", "nom_dept": "ARDECHE" }, "geometry": { "type": "Point", "coordinates": [ 4.629391916161483, 45.288448119789301 ] } },
{ "type": "Feature", "properties": { "nom_com": "LACHAPELLE-SOUS-CHANEAC", "insee_com": "07123", "code_cant": "06", "code_arr": "3", "code_dept": "07", "nom_dept": "ARDECHE" }, "geometry": { "type": "Point", "coordinates": [ 4.318789567352453, 44.954550470058642 ] } },
{ "type": "Feature", "properties": { "nom_com": "DORNAS", "insee_com": "07082", "code_cant": "06", "code_arr": "3", "code_dept": "07", "nom_dept": "ARDECHE" }, "geometry": { "type": "Point", "coordinates": [ 4.357496812791353, 44.851357549097763 ] } },
{ "type": "Feature", "properties": { "nom_com": "ROCHESSAUVE", "insee_com": "07194", "code_cant": "10", "code_arr": "2", "code_dept": "07", "nom_dept": "ARDECHE" }, "geometry": { "type": "Point", "coordinates": [ 4.611639293049929, 44.680599142517764 ] } },
{ "type": "Feature", "properties": { "nom_com": "LES ASSIONS", "insee_com": "07017", "code_cant": "16", "code_arr": "1", "code_dept": "07", "nom_dept": "ARDECHE" }, "geometry": { "type": "Point", "coordinates": [ 4.184898535812336, 44.425172617458465 ] } },
{ "type": "Feature", "properties": { "nom_com": "BANNE", "insee_com": "07024", "code_cant": "16", "code_arr": "1", "code_dept": "07", "nom_dept": "ARDECHE" }, "geometry": { "type": "Point", "coordinates": [ 4.151142384101038, 44.361401286986755 ] } },
{ "type": "Feature", "properties": { "nom_com": "ARCENS", "insee_com": "07012", "code_cant": "06", "code_arr": "3", "code_dept": "07", "nom_dept": "ARDECHE" }, "geometry": { "type": "Point", "coordinates": [ 4.317546723185671, 44.900120696867766 ] } },
{ "type": "Feature", "properties": { "nom_com": "LAVILLEDIEU", "insee_com": "07138", "code_cant": "12", "code_arr": "1", "code_dept": "07", "nom_dept": "ARDECHE" }, "geometry": { "type": "Point", "coordinates": [ 4.448530266250236, 44.581822986194638 ] } },
{ "type": "Feature", "properties": { "nom_com": "ASPERJOC", "insee_com": "07016", "code_cant": "03", "code_arr": "1", "code_dept": "07", "nom_dept": "ARDECHE" }, "geometry": { "type": "Point", "coordinates": [ 4.351387331277605, 44.694850748706131 ] } },
{ "type": "Feature", "properties": { "nom_com": "RUOMS", "insee_com": "07201", "code_cant": "15", "code_arr": "1", "code_dept": "07", "nom_dept": "ARDECHE" }, "geometry": { "type": "Point", "coordinates": [ 4.347762911950134, 44.447723573086158 ] } },
{ "type": "Feature", "properties": { "nom_com": "LACHAPELLE-GRAILLOUSE", "insee_com": "07121", "code_cant": "13", "code_arr": "1", "code_dept": "07", "nom_dept": "ARDECHE" }, "geometry": { "type": "Point", "coordinates": [ 4.019563074805453, 44.811967660410367 ] } },
{ "type": "Feature", "properties": { "nom_com": "LUSSAS", "insee_com": "07145", "code_cant": "12", "code_arr": "1", "code_dept": "07", "nom_dept": "ARDECHE" }, "geometry": { "type": "Point", "coordinates": [ 4.466015326832832, 44.618979776748212 ] } },
{ "type": "Feature", "properties": { "nom_com": "DARBRES", "insee_com": "07077", "code_cant": "12", "code_arr": "1", "code_dept": "07", "nom_dept": "ARDECHE" }, "geometry": { "type": "Point", "coordinates": [ 4.516017745452325, 44.659961047003499 ] } },
{ "type": "Feature", "properties": { "nom_com": "CHANDOLAS", "insee_com": "07053", "code_cant": "16", "code_arr": "1", "code_dept": "07", "nom_dept": "ARDECHE" }, "geometry": { "type": "Point", "coordinates": [ 4.24269835400664, 44.413589502050748 ] } },
{ "type": "Feature", "properties": { "nom_com": "GILHAC-ET-BRUZAC", "insee_com": "07094", "code_cant": "17", "code_arr": "2", "code_dept": "07", "nom_dept": "ARDECHE" }, "geometry": { "type": "Point", "coordinates": [ 4.744909313516359, 44.863101507591026 ] } }
]
}
